[
	{
		"circonscription": "أريانة",
		"delegation": "أريانة المدينة",
		"nom": "أريانة",
		"latitude": "36.86179098536729",
		"longitude": "10.194717735076967"
	},
	{
		"circonscription": "أريانة",
		"delegation": "أريانة المدينة",
		"nom": "رعاية الأم والطفل",
		"latitude": "36.861654",
		"longitude": "10.19451"
	},
	{
		"circonscription": "أريانة",
		"delegation": "أريانة المدينة",
		"nom": "مركز تأهيل المعاقين",
		"latitude": "36.861530589911474",
		"longitude": "10.194875073385748"
	},
	{
		"circonscription": "أريانة",
		"delegation": "أريانة المدينة",
		"nom": "مركز مقاومة السل",
		"latitude": "36.867701822924815",
		"longitude": "10.180204252867884"
	},
	{
		"circonscription": "أريانة",
		"delegation": "سكرة",
		"nom": "سكرة",
		"latitude": "36.87467817067515",
		"longitude": "10.243708151111468"
	},
	{
		"circonscription": "أريانة",
		"delegation": "سكرة",
		"nom": "سيدي سفيان",
		"latitude": "36.87321140238435",
		"longitude": "10.215540828207032"
	},
	{
		"circonscription": "أريانة",
		"delegation": "سكرة",
		"nom": "النسيم/المنصورة",
		"latitude": "36.876705",
		"longitude": "10.199183"
	},
	{
		"circonscription": "أريانة",
		"delegation": "سكرة",
		"nom": "شطرانة",
		"latitude": "36.887031",
		"longitude": "10.217127"
	},
	{
		"circonscription": "أريانة",
		"delegation": "قلعة الأندلس",
		"nom": "قلعة الأندلس",
		"latitude": "37.06006746120367",
		"longitude": "10.110789782934098"
	},
	{
		"circonscription": "أريانة",
		"delegation": "قلعة الأندلس",
		"nom": "بوحنش",
		"latitude": "36.955042",
		"longitude": "10.061205"
	},
	{
		"circonscription": "أريانة",
		"delegation": "قلعة الأندلس",
		"nom": "النّحلي",
		"latitude": "36.89196474965084",
		"longitude": "10.131394126219245"
	},
	{
		"circonscription": "أريانة",
		"delegation": "قلعة الأندلس",
		"nom": "قنطرة بنزرت",
		"latitude": "36.993105",
		"longitude": "10.112782"
	},
	{
		"circonscription": "أريانة",
		"delegation": "رواد",
		"nom": "رواد",
		"latitude": "36.95326781235916",
		"longitude": "10.188707461181913"
	},
	{
		"circonscription": "أريانة",
		"delegation": "رواد",
		"nom": "برج الطويل",
		"latitude": "36.92622336990318",
		"longitude": "10.138011928813167"
	},
	{
		"circonscription": "أريانة",
		"delegation": "رواد",
		"nom": "أريانة الصغرى",
		"latitude": "36.90389732549398",
		"longitude": "10.187073902396433"
	},
	{
		"circonscription": "أريانة",
		"delegation": "سيدي ثابت",
		"nom": "سيدي ثابت",
		"latitude": "36.91194854480968",
		"longitude": "10.041529922858988"
	},
	{
		"circonscription": "أريانة",
		"delegation": "سيدي ثابت",
		"nom": "شرفش",
		"latitude": "36.935798317448636",
		"longitude": "10.03972425937937"
	},
	{
		"circonscription": "أريانة",
		"delegation": "سيدي ثابت",
		"nom": "المباركة",
		"latitude": "36.90151929423626",
		"longitude": "10.02550760180208"
	},
	{
		"circonscription": "أريانة",
		"delegation": "سيدي ثابت",
		"nom": "البكري",
		"latitude": "36.894615225302765",
		"longitude": "10.109227518256673"
	},
	{
		"circonscription": "أريانة",
		"delegation": "سيدي ثابت",
		"nom": "الجباس",
		"latitude": "36.88949835901196",
		"longitude": "10.0803390880837"
	},
	{
		"circonscription": "أريانة",
		"delegation": "التضامن",
		"nom": "المستشفى المحلي",
		"latitude": "36.83267204809528",
		"longitude": "10.096491917088737"
	},
	{
		"circonscription": "أريانة",
		"delegation": "التضامن",
		"nom": "التضامن",
		"latitude": "36.83545954842006",
		"longitude": "10.112571330655564"
	},
	{
		"circonscription": "أريانة",
		"delegation": "المنيهلة",
		"nom": "المنيهلة",
		"latitude": "36.85608689751473",
		"longitude": "10.116755660211488"
	},
	{
		"circonscription": "أريانة",
		"delegation": "المنيهلة",
		"nom": "البساتين",
		"latitude": "36.84533575523176",
		"longitude": "10.091286371932767"
	},
	{
		"circonscription": "القصرين",
		"delegation": "القصرين الشمالية",
		"nom": "حي النور",
		"latitude": "35.1667300000",
		"longitude": "8.8431050000"
	},
	{
		"circonscription": "القصرين",
		"delegation": "القصرين الشمالية",
		"nom": "وسط المدينة",
		"latitude": "35.1709066667",
		"longitude": "8.8302366667"
	},
	{
		"circonscription": "القصرين",
		"delegation": "القصرين الشمالية",
		"nom": "حي الخضراء",
		"latitude": "35.1702800000",
		"longitude": "8.8187016667"
	},
	{
		"circonscription": "القصرين",
		"delegation": "القصرين الشمالية",
		"nom": "بولعابة",
		"latitude": "35.2404883333",
		"longitude": "8.7508300000"
	},
	{
		"circonscription": "القصرين",
		"delegation": "القصرين الشمالية",
		"nom": "حي السلام",
		"latitude": "35.1678416667",
		"longitude": "8.8509966667"
	},
	{
		"circonscription": "القصرين",
		"delegation": "القصرين الشمالية",
		"nom": "مركز رعاية الأم والطفل",
		"latitude": "35.1656183333",
		"longitude": "8.8290566667"
	},
	{
		"circonscription": "القصرين",
		"delegation": "القصرين الجنوبية",
		"nom": "فج بوحسين",
		"latitude": "35.1725766667",
		"longitude": "8.8114183333"
	},
	{
		"circonscription": "القصرين",
		"delegation": "القصرين الجنوبية",
		"nom": "بوزقام",
		"latitude": "35.2101333333",
		"longitude": "8.8947150000"
	},
	{
		"circonscription": "القصرين",
		"delegation": "القصرين الجنوبية",
		"nom": "سيدي حراث",
		"latitude": "35.2194450000",
		"longitude": "8.8848183333"
	},
	{
		"circonscription": "القصرين",
		"delegation": "القصرين الجنوبية",
		"nom": "مقدودش",
		"latitude": "35.2414500000",
		"longitude": "8.8093416667"
	},
	{
		"circonscription": "القصرين",
		"delegation": "القصرين الجنوبية",
		"nom": "الوشواشة",
		"latitude": "35.1873116667",
		"longitude": "8.7872166667"
	},
	{
		"circonscription": "القصرين",
		"delegation": "القصرين الجنوبية",
		"nom": "الدغرة",
		"latitude": "35.1463783333",
		"longitude": "8.7614783333"
	},
	{
		"circonscription": "القصرين",
		"delegation": "القصرين الجنوبية",
		"nom": "الطرش",
		"latitude": "35.1698716667",
		"longitude": "8.7816383333"
	},
	{
		"circonscription": "القصرين",
		"delegation": "القصرين الجنوبية",
		"nom": "فج النعام",
		"latitude": "35.2888150000",
		"longitude": "8.7385366667"
	},
	{
		"circonscription": "القصرين",
		"delegation": "القصرين الجنوبية",
		"nom": "الهشة",
		"latitude": "35.1575800000",
		"longitude": "8.9258316667"
	},
	{
		"circonscription": "القصرين",
		"delegation": "الزهور",
		"nom": "الزهور 1",
		"latitude": "35.1607100000",
		"longitude": "8.8327283333"
	},
	{
		"circonscription": "القصرين",
		"delegation": "الزهور",
		"nom": "الزهور 2",
		"latitude": "35.1560800000",
		"longitude": "8.8377566667"
	},
	{
		"circonscription": "القصرين",
		"delegation": "حاسي الفريد",
		"nom": "حاسي الفريد",
		"latitude": "34.9781366667",
		"longitude": "8.9516833333"
	},
	{
		"circonscription": "القصرين",
		"delegation": "حاسي الفريد",
		"nom": "الكامور",
		"latitude": "34.9369083333",
		"longitude": "8.8109983333"
	},
	{
		"circonscription": "القصرين",
		"delegation": "حاسي الفريد",
		"nom": "الهشيم",
		"latitude": "34.9894050000",
		"longitude": "9.0717483333"
	},
	{
		"circonscription": "القصرين",
		"delegation": "حاسي الفريد",
		"nom": "القويرة",
		"latitude": "35.0135283333",
		"longitude": "8.9878983333"
	},
	{
		"circonscription": "القصرين",
		"delegation": "حاسي الفريد",
		"nom": "المزيرعة",
		"latitude": "35.0871866667",
		"longitude": "9.0222183333"
	},
	{
		"circonscription": "القصرين",
		"delegation": "حاسي الفريد",
		"nom": "فصر الطويل",
		"latitude": "34.9038433333",
		"longitude": "8.9230483333"
	},
	{
		"circonscription": "القصرين",
		"delegation": "حاسي الفريد",
		"nom": "مقسم التراب",
		"latitude": "34.9683166667",
		"longitude": "9.0140816667"
	},
	{
		"circonscription": "القصرين",
		"delegation": "حاسي الفريد",
		"nom": "قرية بوجمعة",
		"latitude": "34.9006950000",
		"longitude": "8.9726600000"
	},
	{
		"circonscription": "القصرين",
		"delegation": "حاسي الفريد",
		"nom": "خنقة الجازية",
		"latitude": "35.0978716667",
		"longitude": "9.1098883333"
	},
	{
		"circonscription": "القصرين",
		"delegation": "سبيبة",
		"nom": "مركز رعاية الأم والطفل",
		"latitude": "35.5424197836",
		"longitude": "9.0732855032"
	},
	{
		"circonscription": "القصرين",
		"delegation": "سبيبة",
		"nom": "سبيبة",
		"latitude": "35.5435685410",
		"longitude": "9.0738895070"
	},
	{
		"circonscription": "القصرين",
		"delegation": "سبيبة",
		"nom": "عين الخمايسية",
		"latitude": "35.4894349294",
		"longitude": "9.1153126274"
	},
	{
		"circonscription": "القصرين",
		"delegation": "سبيبة",
		"nom": "عين زريان",
		"latitude": "35.4338688501",
		"longitude": "9.1666653133"
	},
	{
		"circonscription": "القصرين",
		"delegation": "سبيبة",
		"nom": "إبراهيم الزهار",
		"latitude": "35.5380275982",
		"longitude": "9.2137999590"
	},
	{
		"circonscription": "القصرين",
		"delegation": "سبيبة",
		"nom": "الجباس",
		"latitude": "35.4928503005",
		"longitude": "9.2935995229"
	},
	{
		"circonscription": "القصرين",
		"delegation": "سبيبة",
		"nom": "الحسناوي",
		"latitude": "35.4640043576",
		"longitude": "9.2258721832"
	},
	{
		"circonscription": "القصرين",
		"delegation": "سبيبة",
		"nom": "الكنترة",
		"latitude": "35.5809666456",
		"longitude": "9.1409088342"
	},
	{
		"circonscription": "القصرين",
		"delegation": "سبيبة",
		"nom": "ولجة عقيل",
		"latitude": "35.5257686904",
		"longitude": "9.0152582159"
	},
	{
		"circonscription": "القصرين",
		"delegation": "سبيبة",
		"nom": "البعازة",
		"latitude": "35.4912208664",
		"longitude": "9.0276582811"
	},
	{
		"circonscription": "القصرين",
		"delegation": "جدليان",
		"nom": "جدليان",
		"latitude": "35.5962623145",
		"longitude": "9.0552999117"
	},
	{
		"circonscription": "القصرين",
		"delegation": "جدليان",
		"nom": "عين الحمادنة",
		"latitude": "35.6793938487",
		"longitude": "8.8353723990"
	},
	{
		"circonscription": "القصرين",
		"delegation": "جدليان",
		"nom": "فج تربح",
		"latitude": "35.7356747770",
		"longitude": "8.8419541074"
	},
	{
		"circonscription": "القصرين",
		"delegation": "جدليان",
		"nom": "البلد",
		"latitude": "35.6387950000",
		"longitude": "8.9330766667"
	},
	{
		"circonscription": "القصرين",
		"delegation": "جدليان",
		"nom": "عين الجديدة",
		"latitude": "35.6281468798",
		"longitude": "8.7889393125"
	},
	{
		"circonscription": "القصرين",
		"delegation": "سبيطلة",
		"nom": "حي السرور",
		"latitude": "35.2285066667",
		"longitude": "9.1295583333"
	},
	{
		"circonscription": "القصرين",
		"delegation": "سبيطلة",
		"nom": "المزارة",
		"latitude": "35.0719300000",
		"longitude": "9.1640016667"
	},
	{
		"circonscription": "القصرين",
		"delegation": "سبيطلة",
		"nom": "الرخمات",
		"latitude": "35.0699300000",
		"longitude": "9.2124100000"
	},
	{
		"circonscription": "القصرين",
		"delegation": "سبيطلة",
		"nom": "القرعة الحمراء",
		"latitude": "35.1282900000",
		"longitude": "9.2272966667"
	},
	{
		"circonscription": "القصرين",
		"delegation": "سبيطلة",
		"nom": "القنة",
		"latitude": "35.3965483333",
		"longitude": "9.1182850000"
	},
	{
		"circonscription": "القصرين",
		"delegation": "سبيطلة",
		"nom": "هنسير العسل",
		"latitude": "35.4346833333",
		"longitude": "9.0873233333"
	},
	{
		"circonscription": "القصرين",
		"delegation": "سبيطلة",
		"nom": "الدولاب",
		"latitude": "35.3781100000",
		"longitude": "8.9147550000"
	},
	{
		"circonscription": "القصرين",
		"delegation": "سبيطلة",
		"nom": "سمامة",
		"latitude": "35.2831250000",
		"longitude": "8.9816066667"
	},
	{
		"circonscription": "القصرين",
		"delegation": "سبيطلة",
		"nom": "مشرق الشمس",
		"latitude": "35.3815466667",
		"longitude": "9.0288933333"
	},
	{
		"circonscription": "القصرين",
		"delegation": "سبيطلة",
		"nom": "القلال",
		"latitude": "35.2538816667",
		"longitude": "8.9551350000"
	},
	{
		"circonscription": "القصرين",
		"delegation": "سبيطلة",
		"nom": "الشرايع",
		"latitude": "35.2540100000",
		"longitude": "9.0197716667"
	},
	{
		"circonscription": "القصرين",
		"delegation": "سبيطلة",
		"nom": "طربخانة",
		"latitude": "35.2980250000",
		"longitude": "9.0380116667"
	},
	{
		"circonscription": "القصرين",
		"delegation": "سبيطلة",
		"nom": "وجه الرخمات",
		"latitude": "35.0707466667",
		"longitude": "9.2872716667"
	},
	{
		"circonscription": "القصرين",
		"delegation": "سبيطلة",
		"nom": "الصعايدية",
		"latitude": "35.1724800000",
		"longitude": "9.1877716667"
	},
	{
		"circonscription": "القصرين",
		"delegation": "سبيطلة",
		"nom": "مركز رعاية الأم والطفل",
		"latitude": "35.2305133333",
		"longitude": "9.1224850000"
	},
	{
		"circonscription": "القصرين",
		"delegation": "سبيطلة",
		"nom": "سبيطلة",
		"latitude": "35.2365766667",
		"longitude": "9.1155016667"
	},
	{
		"circonscription": "القصرين",
		"delegation": "فوسانة",
		"nom": "مركز رعاية الأم والطفل",
		"latitude": "35.3476633333",
		"longitude": "8.6244566667"
	},
	{
		"circonscription": "القصرين",
		"delegation": "فوسانة",
		"nom": "عين جنان",
		"latitude": "35.3976533333",
		"longitude": "8.4206083333"
	},
	{
		"circonscription": "القصرين",
		"delegation": "فوسانة",
		"nom": "بودرياس",
		"latitude": "35.2891983333",
		"longitude": "8.5069800000"
	},
	{
		"circonscription": "القصرين",
		"delegation": "فوسانة",
		"nom": "الحازة",
		"latitude": "35.3535183333",
		"longitude": "8.5072233333"
	},
	{
		"circonscription": "القصرين",
		"delegation": "فوسانة",
		"nom": "خمودة",
		"latitude": "35.3346783333",
		"longitude": "8.7122700000"
	},
	{
		"circonscription": "القصرين",
		"delegation": "فوسانة",
		"nom": "وادي الرشح",
		"latitude": "35.3190933333",
		"longitude": "8.6758633333"
	},
	{
		"circonscription": "القصرين",
		"delegation": "فوسانة",
		"nom": "أولاد بنجاح",
		"latitude": "35.2887866667",
		"longitude": "8.7385383333"
	},
	{
		"circonscription": "القصرين",
		"delegation": "فوسانة",
		"nom": "أولاد بوغانم",
		"latitude": "35.2660383333",
		"longitude": "8.7030683333"
	},
	{
		"circonscription": "القصرين",
		"delegation": "فوسانة",
		"nom": "أولاد محفوظ",
		"latitude": "35.3599283333",
		"longitude": "8.5299350000"
	},
	{
		"circonscription": "القصرين",
		"delegation": "فوسانة",
		"nom": "أولاد منصور",
		"latitude": "35.3888266667",
		"longitude": "8.7230883333"
	},
	{
		"circonscription": "القصرين",
		"delegation": "فوسانة",
		"nom": "الصحراوي",
		"latitude": "35.4204450000",
		"longitude": "8.3983716667"
	},
	{
		"circonscription": "القصرين",
		"delegation": "فوسانة",
		"nom": "لحمار",
		"latitude": "35.3550866667",
		"longitude": "8.7278566667"
	},
	{
		"circonscription": "القصرين",
		"delegation": "فوسانة",
		"nom": "فوسانة",
		"latitude": "35.3546550000",
		"longitude": "8.6360616667"
	},
	{
		"circonscription": "القصرين",
		"delegation": "تالــة",
		"nom": "مركز رعاية الأم والطفل",
		"latitude": "35.5718044872",
		"longitude": "8.6710595161"
	},
	{
		"circonscription": "القصرين",
		"delegation": "تالــة",
		"nom": "تالة",
		"latitude": "35.5675273948",
		"longitude": "8.6770249390"
	},
	{
		"circonscription": "القصرين",
		"delegation": "تالــة",
		"nom": "سيدي سهيل",
		"latitude": "35.6315792069",
		"longitude": "8.7301718133"
	},
	{
		"circonscription": "القصرين",
		"delegation": "تالــة",
		"nom": "دشرة شاكر",
		"latitude": "35.6386437825",
		"longitude": "8.6414983341"
	},
	{
		"circonscription": "القصرين",
		"delegation": "تالــة",
		"nom": "زاوية الشافعي",
		"latitude": "35.5813472396",
		"longitude": "8.5714867708"
	},
	{
		"circonscription": "القصرين",
		"delegation": "تالــة",
		"nom": "زلفان",
		"latitude": "35.4407287567",
		"longitude": "8.7733146379"
	},
	{
		"circonscription": "القصرين",
		"delegation": "تالــة",
		"nom": "بئر شعبان",
		"latitude": "35.4546246461",
		"longitude": "8.7239696839"
	},
	{
		"circonscription": "القصرين",
		"delegation": "تالــة",
		"nom": "بولحناش",
		"latitude": "35.7150908099",
		"longitude": "8.6635316274"
	},
	{
		"circonscription": "القصرين",
		"delegation": "تالــة",
		"nom": "العرقوب",
		"latitude": "35.7478620947",
		"longitude": "8.6760359660"
	},
	{
		"circonscription": "القصرين",
		"delegation": "تالــة",
		"nom": "العيون الحمر",
		"latitude": "35.6907600629",
		"longitude": "8.7080416418"
	},
	{
		"circonscription": "القصرين",
		"delegation": "تالــة",
		"nom": "الكباسي",
		"latitude": "35.5078662194",
		"longitude": "8.6464896732"
	},
	{
		"circonscription": "القصرين",
		"delegation": "تالــة",
		"nom": "الدشرة",
		"latitude": "35.6513034486",
		"longitude": "8.6037443597"
	},
	{
		"circonscription": "القصرين",
		"delegation": "تالــة",
		"nom": "سيدي محمد",
		"latitude": "35.7301310850",
		"longitude": "8.7498806814"
	},
	{
		"circonscription": "القصرين",
		"delegation": "العيون",
		"nom": "العيون",
		"latitude": "35.5301892225",
		"longitude": "8.8836754709"
	},
	{
		"circonscription": "القصرين",
		"delegation": "العيون",
		"nom": "القرين",
		"latitude": "35.3880876997",
		"longitude": "8.8606287403"
	},
	{
		"circonscription": "القصرين",
		"delegation": "العيون",
		"nom": "أولاد بوغدير",
		"latitude": "35.4196911240",
		"longitude": "8.8388965289"
	},
	{
		"circonscription": "القصرين",
		"delegation": "العيون",
		"nom": "البرك",
		"latitude": "35.4712722197",
		"longitude": "8.8158452512"
	},
	{
		"circonscription": "القصرين",
		"delegation": "العيون",
		"nom": "توشة",
		"latitude": "35.4629451742",
		"longitude": "8.8976429665"
	},
	{
		"circonscription": "القصرين",
		"delegation": "العيون",
		"nom": "البواجر",
		"latitude": "35.5779297936",
		"longitude": "8.8177775060"
	},
	{
		"circonscription": "القصرين",
		"delegation": "العيون",
		"nom": "المحافظية",
		"latitude": "35.4471050804",
		"longitude": "8.9259966961"
	},
	{
		"circonscription": "القصرين",
		"delegation": "العيون",
		"nom": "عين سلسلة",
		"latitude": "35.5900391160",
		"longitude": "8.9219144433"
	},
	{
		"circonscription": "القصرين",
		"delegation": "حيدرة",
		"nom": "حيدرة",
		"latitude": "35.5660687541",
		"longitude": "8.4397787381"
	},
	{
		"circonscription": "القصرين",
		"delegation": "حيدرة",
		"nom": "المكيمن",
		"latitude": "35.6406139379",
		"longitude": "8.4519502868"
	},
	{
		"circonscription": "القصرين",
		"delegation": "حيدرة",
		"nom": "الطباقة",
		"latitude": "35.4943891398",
		"longitude": "8.4743839608"
	},
	{
		"circonscription": "القصرين",
		"delegation": "حيدرة",
		"nom": "عين الدفلة",
		"latitude": "35.6166226766",
		"longitude": "8.5762396459"
	},
	{
		"circonscription": "القصرين",
		"delegation": "حيدرة",
		"nom": "الصري",
		"latitude": "35.5635308191",
		"longitude": "8.3785297538"
	},
	{
		"circonscription": "القصرين",
		"delegation": "حيدرة",
		"nom": "الأجرد",
		"latitude": "35.4592555686",
		"longitude": "8.5736961997"
	},
	{
		"circonscription": "القصرين",
		"delegation": "فريانة",
		"nom": "مركز رعاية الأم والطفل",
		"latitude": "34.9507016667",
		"longitude": "8.5778000000"
	},
	{
		"circonscription": "القصرين",
		"delegation": "فريانة",
		"nom": "فريانة",
		"latitude": "34.9453950000",
		"longitude": "8.5626766667"
	},
	{
		"circonscription": "القصرين",
		"delegation": "فريانة",
		"nom": "الأحواش",
		"latitude": "34.9483100000",
		"longitude": "8.5664850000"
	},
	{
		"circonscription": "القصرين",
		"delegation": "فريانة",
		"nom": "بوحية",
		"latitude": "35.1245633333",
		"longitude": "8.5474583333"
	},
	{
		"circonscription": "القصرين",
		"delegation": "فريانة",
		"nom": "الصخيرات",
		"latitude": "34.9133016667",
		"longitude": "8.4771266667"
	},
	{
		"circonscription": "القصرين",
		"delegation": "فريانة",
		"nom": "تلابت",
		"latitude": "34.9775366667",
		"longitude": "8.5959900000"
	},
	{
		"circonscription": "القصرين",
		"delegation": "فريانة",
		"nom": "قارة النعام",
		"latitude": "35.0711600000",
		"longitude": "8.5580700000"
	},
	{
		"circonscription": "القصرين",
		"delegation": "فريانة",
		"nom": "بوشبكة",
		"latitude": "35.1676366667",
		"longitude": "8.4216733333"
	},
	{
		"circonscription": "القصرين",
		"delegation": "فريانة",
		"nom": "أولاد سالم",
		"latitude": "34.9361433333",
		"longitude": "8.5300866667"
	},
	{
		"circonscription": "القصرين",
		"delegation": "فريانة",
		"nom": "أم علي",
		"latitude": "35.0000816667",
		"longitude": "8.5321350000"
	},
	{
		"circonscription": "القصرين",
		"delegation": "فريانة",
		"nom": "أولاد خضرة",
		"latitude": "35.1274100000",
		"longitude": "8.4634333333"
	},
	{
		"circonscription": "القصرين",
		"delegation": "فريانة",
		"nom": "عبد العظيم",
		"latitude": "35.0582783333",
		"longitude": "8.6578916667"
	},
	{
		"circonscription": "القصرين",
		"delegation": "فريانة",
		"nom": "أولاد ابراهيم",
		"latitude": "35.0309766667",
		"longitude": "8.6233233333"
	},
	{
		"circonscription": "القصرين",
		"delegation": "ماجل بلعباس",
		"nom": "العيايشة",
		"latitude": "34.8185066667",
		"longitude": "8.5603433333"
	},
	{
		"circonscription": "القصرين",
		"delegation": "ماجل بلعباس",
		"nom": "أم الأقصاب",
		"latitude": "34.7083850000",
		"longitude": "8.4629966667"
	},
	{
		"circonscription": "القصرين",
		"delegation": "ماجل بلعباس",
		"nom": "النّاظور",
		"latitude": "34.7382416667",
		"longitude": "8.6102433333"
	},
	{
		"circonscription": "القصرين",
		"delegation": "ماجل بلعباس",
		"nom": "قروع الجدرة",
		"latitude": "34.6182116667",
		"longitude": "8.5874866667"
	},
	{
		"circonscription": "القصرين",
		"delegation": "ماجل بلعباس",
		"nom": "أولاد مرزوق",
		"latitude": "34.6959933333",
		"longitude": "8.4308833333"
	},
	{
		"circonscription": "القصرين",
		"delegation": "ماجل بلعباس",
		"nom": "البروكة",
		"latitude": "34.6555116667",
		"longitude": "8.5797716667"
	},
	{
		"circonscription": "القصرين",
		"delegation": "ماجل بلعباس",
		"nom": "هنشير أم الخير",
		"latitude": "34.6748333333",
		"longitude": "8.5488416667"
	},
	{
		"circonscription": "القصرين",
		"delegation": "ماجل بلعباس",
		"nom": "مركز رعاية الأم والطفل",
		"latitude": "34.7484866667",
		"longitude": "8.5210466667"
	},
	{
		"circonscription": "القصرين",
		"delegation": "ماجل بلعباس",
		"nom": "ماجل بلعباس",
		"latitude": "34.7547483333",
		"longitude": "8.5210916667"
	},
	{
		"circonscription": "القيروان",
		"delegation": "الشبيكة",
		"nom": "الشبيكة",
		"latitude": "35.6161500000",
		"longitude": "9.9255666667"
	},
	{
		"circonscription": "القيروان",
		"delegation": "الشبيكة",
		"nom": "عبيدة",
		"latitude": "35.5917916667",
		"longitude": "9.9306300000"
	},
	{
		"circonscription": "القيروان",
		"delegation": "الشبيكة",
		"nom": "سيدي علي سالم",
		"latitude": "35.5833083333",
		"longitude": "9.9050666667"
	},
	{
		"circonscription": "القيروان",
		"delegation": "الشبيكة",
		"nom": "هماد",
		"latitude": "35.5250150000",
		"longitude": "9.9053300000"
	},
	{
		"circonscription": "القيروان",
		"delegation": "الشبيكة",
		"nom": "الكرمة",
		"latitude": "35.5336116667",
		"longitude": "9.8498316667"
	},
	{
		"circonscription": "القيروان",
		"delegation": "الشبيكة",
		"nom": "أولاد نصر",
		"latitude": "35.5219833333",
		"longitude": "9.8305283333"
	},
	{
		"circonscription": "القيروان",
		"delegation": "الشبيكة",
		"nom": "سيدي عبد الله",
		"latitude": "35.6978566667",
		"longitude": "9.9278100000"
	},
	{
		"circonscription": "القيروان",
		"delegation": "الشبيكة",
		"nom": "الهوارب",
		"latitude": "35.5664200000",
		"longitude": "9.7685616667"
	},
	{
		"circonscription": "القيروان",
		"delegation": "الشبيكة",
		"nom": "العوامرية",
		"latitude": "35.6747300000",
		"longitude": "9.9794616667"
	},
	{
		"circonscription": "القيروان",
		"delegation": "الشبيكة",
		"nom": "الرويسات",
		"latitude": "35.7683366667",
		"longitude": "9.9178033333"
	},
	{
		"circonscription": "القيروان",
		"delegation": "الشبيكة",
		"nom": "tفج الرويسات",
		"latitude": "35.7636050000",
		"longitude": "9.8779816667"
	},
	{
		"circonscription": "القيروان",
		"delegation": "الشبيكة",
		"nom": "المجدوب",
		"latitude": "35.6483400000",
		"longitude": "9.9569583333"
	},
	{
		"circonscription": "القيروان",
		"delegation": "nouveau centre",
		"nom": "nouveau centre",
		"latitude": "35.5621816667",
		"longitude": "9.8421350000"
	},
	{
		"circonscription": "القيروان",
		"delegation": "حفوز",
		"nom": "عيادات خارجية",
		"latitude": "35.6347466667",
		"longitude": "9.6780666667"
	},
	{
		"circonscription": "القيروان",
		"delegation": "حفوز",
		"nom": "حفوز",
		"latitude": "35.6715600000",
		"longitude": "9.7958600000"
	},
	{
		"circonscription": "القيروان",
		"delegation": "حفوز",
		"nom": "عين البيضاء",
		"latitude": "35.5189733333",
		"longitude": "9.7220983333"
	},
	{
		"circonscription": "القيروان",
		"delegation": "حفوز",
		"nom": "أولاد خلف الله",
		"latitude": "35.5025750000",
		"longitude": "9.7877866667"
	},
	{
		"circonscription": "القيروان",
		"delegation": "حفوز",
		"nom": "الحوفبة",
		"latitude": "35.6005883333",
		"longitude": "9.7818550000"
	},
	{
		"circonscription": "القيروان",
		"delegation": "حفوز",
		"nom": "طرزة",
		"latitude": "35.5659133333",
		"longitude": "9.6528983333"
	},
	{
		"circonscription": "القيروان",
		"delegation": "حفوز",
		"nom": "العنق",
		"latitude": "35.6918366667",
		"longitude": "9.5935383333"
	},
	{
		"circonscription": "القيروان",
		"delegation": "حفوز",
		"nom": "خيط الوادي",
		"latitude": "35.7081200000",
		"longitude": "9.6326350000"
	},
	{
		"circonscription": "القيروان",
		"delegation": "حفوز",
		"nom": "عين غراب",
		"latitude": "35.5861033333",
		"longitude": "9.7339300000"
	},
	{
		"circonscription": "القيروان",
		"delegation": "حفوز",
		"nom": "أولاد علي",
		"latitude": "35.6477866667",
		"longitude": "9.5437600000"
	},
	{
		"circonscription": "القيروان",
		"delegation": "حفوز",
		"nom": "الشريشيرة i",
		"latitude": "35.7027316667",
		"longitude": "9.8074300000"
	},
	{
		"circonscription": "القيروان",
		"delegation": "حفوز",
		"nom": "الشريشيرة ii",
		"latitude": "35.6584600000",
		"longitude": "9.7979850000"
	},
	{
		"circonscription": "القيروان",
		"delegation": "حفوز",
		"nom": "الزعيرات",
		"latitude": "35.5149266667",
		"longitude": "9.5892816667"
	},
	{
		"circonscription": "القيروان",
		"delegation": "حفوز",
		"nom": "عين الكدية",
		"latitude": "35.7069550000",
		"longitude": "9.6698933333"
	},
	{
		"circonscription": "القيروان",
		"delegation": "القيروان الجنوبية",
		"nom": "المنصورة",
		"latitude": "35.6554333333",
		"longitude": "10.0869633333"
	},
	{
		"circonscription": "القيروان",
		"delegation": "القيروان الجنوبية",
		"nom": "رعاية الأم والطفل",
		"latitude": "35.6691700000",
		"longitude": "10.0973800000"
	},
	{
		"circonscription": "القيروان",
		"delegation": "القيروان الجنوبية",
		"nom": "ابن الفورات",
		"latitude": "35.6708250000",
		"longitude": "10.1001283333"
	},
	{
		"circonscription": "القيروان",
		"delegation": "القيروان الجنوبية",
		"nom": "البورجي",
		"latitude": "35.6605083333",
		"longitude": "10.1091583333"
	},
	{
		"circonscription": "القيروان",
		"delegation": "القيروان الجنوبية",
		"nom": "حي السلام",
		"latitude": "35.6654766667",
		"longitude": "10.0848633333"
	},
	{
		"circonscription": "القيروان",
		"delegation": "القيروان الجنوبية",
		"nom": "رقادة",
		"latitude": "35.6155050000",
		"longitude": "10.0700083333"
	},
	{
		"circonscription": "القيروان",
		"delegation": "القيروان الجنوبية",
		"nom": "الخضراء",
		"latitude": "35.4858066667",
		"longitude": "9.9536716667"
	},
	{
		"circonscription": "القيروان",
		"delegation": "القيروان الجنوبية",
		"nom": "زعفرانة",
		"latitude": "35.5315750000",
		"longitude": "10.0575633333"
	},
	{
		"circonscription": "القيروان",
		"delegation": "القيروان الجنوبية",
		"nom": "النبش",
		"latitude": "35.5119766667",
		"longitude": "10.2175050000"
	},
	{
		"circonscription": "القيروان",
		"delegation": "القيروان الجنوبية",
		"nom": "الطب المدرسي",
		"latitude": "35.6492783333",
		"longitude": "10.0844183333"
	},
	{
		"circonscription": "القيروان",
		"delegation": "القيروان الجنوبية",
		"nom": "الخزازية",
		"latitude": "35.6296800000",
		"longitude": "10.2125416667"
	},
	{
		"circonscription": "القيروان",
		"delegation": "القيروان الجنوبية",
		"nom": "أولاد نهار",
		"latitude": "35.6282983333",
		"longitude": "10.1703750000"
	},
	{
		"circonscription": "القيروان",
		"delegation": "القيروان الجنوبية",
		"nom": "المخصومة",
		"latitude": "35.5918616667",
		"longitude": "10.1932150000"
	},
	{
		"circonscription": "القيروان",
		"delegation": "القيروان الجنوبية",
		"nom": "بريكات العرقوب",
		"latitude": "35.4638850000",
		"longitude": "9.9216483333"
	},
	{
		"circonscription": "القيروان",
		"delegation": "القيروان الشمالية",
		"nom": "زروق",
		"latitude": "35.6775616667",
		"longitude": "10.1021900000"
	},
	{
		"circonscription": "القيروان",
		"delegation": "القيروان الشمالية",
		"nom": "الحجام",
		"latitude": "35.6784183333",
		"longitude": "10.0888716667"
	},
	{
		"circonscription": "القيروان",
		"delegation": "القيروان الشمالية",
		"nom": "المنشية",
		"latitude": "35.6798966667",
		"longitude": "10.0794200000"
	},
	{
		"circonscription": "القيروان",
		"delegation": "القيروان الشمالية",
		"nom": "الباطن",
		"latitude": "35.7120783333",
		"longitude": "10.0028300000"
	},
	{
		"circonscription": "القيروان",
		"delegation": "القيروان الشمالية",
		"nom": "المتبسطة",
		"latitude": "35.7925183333",
		"longitude": "10.1467716667"
	},
	{
		"circonscription": "القيروان",
		"delegation": "القيروان الشمالية",
		"nom": "مركز مقاومة السل",
		"latitude": "35.6782450000",
		"longitude": "10.0891666667"
	},
	{
		"circonscription": "القيروان",
		"delegation": "القيروان الشمالية",
		"nom": "السيوري",
		"latitude": "35.6790666667",
		"longitude": "10.1080666667"
	},
	{
		"circonscription": "القيروان",
		"delegation": "القيروان الشمالية",
		"nom": "سحنون",
		"latitude": "35.6834866667",
		"longitude": "10.1072233333"
	},
	{
		"circonscription": "القيروان",
		"delegation": "الحاجب",
		"nom": "الحاجب",
		"latitude": "35.3898666667",
		"longitude": "9.5533300000"
	},
	{
		"circonscription": "القيروان",
		"delegation": "الحاجب",
		"nom": "الحاجب pmi",
		"latitude": "35.3948650000",
		"longitude": "9.5456416667"
	},
	{
		"circonscription": "القيروان",
		"delegation": "الحاجب",
		"nom": "عيثة النساء",
		"latitude": "35.3247433333",
		"longitude": "9.6136400000"
	},
	{
		"circonscription": "القيروان",
		"delegation": "الحاجب",
		"nom": "الدغيمة",
		"latitude": "35.2918683333",
		"longitude": "9.5636633333"
	},
	{
		"circonscription": "القيروان",
		"delegation": "الحاجب",
		"nom": "المناسة",
		"latitude": "35.2872666667",
		"longitude": "9.6206750000"
	},
	{
		"circonscription": "القيروان",
		"delegation": "الحاجب",
		"nom": "الغويبة",
		"latitude": "35.3689916667",
		"longitude": "9.5715683333"
	},
	{
		"circonscription": "القيروان",
		"delegation": "الحاجب",
		"nom": "الهدايا",
		"latitude": "35.4784066667",
		"longitude": "9.6610000000"
	},
	{
		"circonscription": "القيروان",
		"delegation": "الحاجب",
		"nom": "السرجة",
		"latitude": "35.4997316667",
		"longitude": "9.5117766667"
	},
	{
		"circonscription": "القيروان",
		"delegation": "الحاجب",
		"nom": "الشواشي",
		"latitude": "35.5474300000",
		"longitude": "9.5110250000"
	},
	{
		"circonscription": "القيروان",
		"delegation": "الحاجب",
		"nom": "المدنية الحجاج",
		"latitude": "35.5649966667",
		"longitude": "9.4726816667"
	},
	{
		"circonscription": "القيروان",
		"delegation": "الحاجب",
		"nom": "أولاد الحاج",
		"latitude": "35.4470266667",
		"longitude": "9.5790133333"
	},
	{
		"circonscription": "القيروان",
		"delegation": "الوسلاتية",
		"nom": "الوسلاتية ش+ غ",
		"latitude": "35.8461350000",
		"longitude": "9.5969150000"
	},
	{
		"circonscription": "القيروان",
		"delegation": "الوسلاتية",
		"nom": "عين جلولة",
		"latitude": "35.7995166667",
		"longitude": "9.8042933333"
	},
	{
		"circonscription": "القيروان",
		"delegation": "الوسلاتية",
		"nom": "معروف",
		"latitude": "36.0323783333",
		"longitude": "9.6915366667"
	},
	{
		"circonscription": "القيروان",
		"delegation": "الوسلاتية",
		"nom": "وادي القصب",
		"latitude": "36.0433233333",
		"longitude": "9.7760016667"
	},
	{
		"circonscription": "القيروان",
		"delegation": "الوسلاتية",
		"nom": "عين مستور",
		"latitude": "35.9023950000",
		"longitude": "9.6369900000"
	},
	{
		"circonscription": "القيروان",
		"delegation": "الوسلاتية",
		"nom": "المرقب",
		"latitude": "35.7546883333",
		"longitude": "9.5867033333"
	},
	{
		"circonscription": "القيروان",
		"delegation": "الوسلاتية",
		"nom": "العرقوب",
		"latitude": "35.8183416667",
		"longitude": "9.7405650000"
	},
	{
		"circonscription": "القيروان",
		"delegation": "الوسلاتية",
		"nom": "الريحان 1",
		"latitude": "35.7904716667",
		"longitude": "9.6493700000"
	},
	{
		"circonscription": "القيروان",
		"delegation": "الوسلاتية",
		"nom": "المسيرب",
		"latitude": "35.9544933333",
		"longitude": "9.6395833333"
	},
	{
		"circonscription": "القيروان",
		"delegation": "الوسلاتية",
		"nom": "المعازيل",
		"latitude": "35.7191950000",
		"longitude": "9.5553416667"
	},
	{
		"circonscription": "القيروان",
		"delegation": "الوسلاتية",
		"nom": "الطاوسة",
		"latitude": "35.9986066667",
		"longitude": "9.7311816667"
	},
	{
		"circonscription": "القيروان",
		"delegation": "الوسلاتية",
		"nom": "جبل الريحان",
		"latitude": "35.7721966667",
		"longitude": "9.6617833333"
	},
	{
		"circonscription": "القيروان",
		"delegation": "الوسلاتية",
		"nom": "زغدود",
		"latitude": "35.9525966667",
		"longitude": "9.7285916667"
	},
	{
		"circonscription": "القيروان",
		"delegation": "الوسلاتية",
		"nom": "القليعة",
		"latitude": "35.9025333333",
		"longitude": "9.5582566667"
	},
	{
		"circonscription": "القيروان",
		"delegation": "الوسلاتية",
		"nom": "أولاد عيار",
		"latitude": "36.0056166667",
		"longitude": "9.7884833333"
	},
	{
		"circonscription": "القيروان",
		"delegation": "nouveau centre",
		"nom": "nouveau centre",
		"latitude": "35.8477950000",
		"longitude": "9.5902533333"
	},
	{
		"circonscription": "القيروان",
		"delegation": "السبيخة",
		"nom": "السبيخة c ex",
		"latitude": "35.9294366667",
		"longitude": "10.0213916667"
	},
	{
		"circonscription": "القيروان",
		"delegation": "السبيخة",
		"nom": "السبيخة",
		"latitude": "35.9295683333",
		"longitude": "10.0216316667"
	},
	{
		"circonscription": "القيروان",
		"delegation": "السبيخة",
		"nom": "عين بو مرة",
		"latitude": "35.9661100000",
		"longitude": "9.9529216667"
	},
	{
		"circonscription": "القيروان",
		"delegation": "السبيخة",
		"nom": "سيدي مسعود",
		"latitude": "35.9915183333",
		"longitude": "9.8549600000"
	},
	{
		"circonscription": "القيروان",
		"delegation": "السبيخة",
		"nom": "الدخيلة",
		"latitude": "35.8379833333",
		"longitude": "10.0000033333"
	},
	{
		"circonscription": "القيروان",
		"delegation": "السبيخة",
		"nom": "الشقافية",
		"latitude": "35.9318683333",
		"longitude": "9.9339966667"
	},
	{
		"circonscription": "القيروان",
		"delegation": "السبيخة",
		"nom": "هندي الزيتونة",
		"latitude": "35.9996016667",
		"longitude": "10.0968150000"
	},
	{
		"circonscription": "القيروان",
		"delegation": "السبيخة",
		"nom": "سيسب",
		"latitude": "35.9046583333",
		"longitude": "10.1285783333"
	},
	{
		"circonscription": "القيروان",
		"delegation": "السبيخة",
		"nom": "العلم",
		"latitude": "35.9068150000",
		"longitude": "10.0607100000"
	},
	{
		"circonscription": "القيروان",
		"delegation": "السبيخة",
		"nom": "البلاطة",
		"latitude": "35.9048600000",
		"longitude": "10.1285333333"
	},
	{
		"circonscription": "القيروان",
		"delegation": "السبيخة",
		"nom": "القفي",
		"latitude": "36.0761816667",
		"longitude": "10.1398850000"
	},
	{
		"circonscription": "القيروان",
		"delegation": "السبيخة",
		"nom": "عين دباب",
		"latitude": "36.0226700000",
		"longitude": "9.8750483333"
	},
	{
		"circonscription": "القيروان",
		"delegation": "السبيخة",
		"nom": "دار الجمعية",
		"latitude": "36.0310450000",
		"longitude": "10.1915500000"
	},
	{
		"circonscription": "القيروان",
		"delegation": "نصر الله",
		"nom": "نصر الله",
		"latitude": "35.3599883333",
		"longitude": "9.8399166667"
	},
	{
		"circonscription": "القيروان",
		"delegation": "نصر الله",
		"nom": "منزل المهيري",
		"latitude": "35.4249466667",
		"longitude": "9.8527533333"
	},
	{
		"circonscription": "القيروان",
		"delegation": "نصر الله",
		"nom": "الحميدات",
		"latitude": "35.4723283333",
		"longitude": "9.8469516667"
	},
	{
		"circonscription": "القيروان",
		"delegation": "نصر الله",
		"nom": "فم الفجيج",
		"latitude": "35.4376383333",
		"longitude": "9.7990633333"
	},
	{
		"circonscription": "القيروان",
		"delegation": "نصر الله",
		"nom": "سيدي سعد",
		"latitude": "35.3882583333",
		"longitude": "9.7593150000"
	},
	{
		"circonscription": "القيروان",
		"delegation": "نصر الله",
		"nom": "الطويلة",
		"latitude": "35.4432050000",
		"longitude": "9.7467550000"
	},
	{
		"circonscription": "القيروان",
		"delegation": "نصر الله",
		"nom": "الشابي",
		"latitude": "35.2970416667",
		"longitude": "9.7716100000"
	},
	{
		"circonscription": "القيروان",
		"delegation": "نصر الله",
		"nom": "المنارة",
		"latitude": "35.2371400000",
		"longitude": "9.7737933333"
	},
	{
		"circonscription": "القيروان",
		"delegation": "نصر الله",
		"nom": "خبنة الطمامة",
		"latitude": "35.2311116667",
		"longitude": "9.7316233333"
	},
	{
		"circonscription": "القيروان",
		"delegation": "نصر الله",
		"nom": "البريكات",
		"latitude": "35.2079833333",
		"longitude": "9.9294100000"
	},
	{
		"circonscription": "القيروان",
		"delegation": "نصر الله",
		"nom": "بئر القصور",
		"latitude": "35.2684600000",
		"longitude": "9.9390600000"
	},
	{
		"circonscription": "القيروان",
		"delegation": "بوحجلة",
		"nom": "بوحجلة",
		"latitude": "35.3965666667",
		"longitude": "10.0468133333"
	},
	{
		"circonscription": "القيروان",
		"delegation": "بوحجلة",
		"nom": "رعاية الأم والطفل",
		"latitude": "35.3963750000",
		"longitude": "10.0459433333"
	},
	{
		"circonscription": "القيروان",
		"delegation": "بوحجلة",
		"nom": "بئر المسكين",
		"latitude": "35.4595650000",
		"longitude": "10.0685783333"
	},
	{
		"circonscription": "القيروان",
		"delegation": "بوحجلة",
		"nom": "النصر",
		"latitude": "35.4511216667",
		"longitude": "10.1247650000"
	},
	{
		"circonscription": "القيروان",
		"delegation": "بوحجلة",
		"nom": "الفتح",
		"latitude": "35.4003800000",
		"longitude": "10.1326316667"
	},
	{
		"circonscription": "القيروان",
		"delegation": "بوحجلة",
		"nom": "القطيطير",
		"latitude": "35.2977100000",
		"longitude": "10.1241616667"
	},
	{
		"circonscription": "القيروان",
		"delegation": "بوحجلة",
		"nom": "الشرفة",
		"latitude": "35.2875633333",
		"longitude": "10.0528316667"
	},
	{
		"circonscription": "القيروان",
		"delegation": "بوحجلة",
		"nom": "بئر الدولة",
		"latitude": "35.2563766667",
		"longitude": "10.0303066667"
	},
	{
		"circonscription": "القيروان",
		"delegation": "بوحجلة",
		"nom": "جوهينة",
		"latitude": "35.3075433333",
		"longitude": "9.9586150000"
	},
	{
		"circonscription": "القيروان",
		"delegation": "بوحجلة",
		"nom": "بوساري",
		"latitude": "35.3888266667",
		"longitude": "9.9305450000"
	},
	{
		"circonscription": "القيروان",
		"delegation": "بوحجلة",
		"nom": "المويسات",
		"latitude": "35.3584666667",
		"longitude": "10.0309500000"
	},
	{
		"circonscription": "القيروان",
		"delegation": "بوحجلة",
		"nom": "طراد",
		"latitude": "35.4613250000",
		"longitude": "9.9985566667"
	},
	{
		"circonscription": "القيروان",
		"delegation": "الشراردة",
		"nom": "الشراردة",
		"latitude": "35.1264916667",
		"longitude": "10.0349750000"
	},
	{
		"circonscription": "القيروان",
		"delegation": "الشراردة",
		"nom": "العوايد",
		"latitude": "35.0449616667",
		"longitude": "10.0509433333"
	},
	{
		"circonscription": "القيروان",
		"delegation": "الشراردة",
		"nom": "القصور",
		"latitude": "35.1925650000",
		"longitude": "10.0026866667"
	},
	{
		"circonscription": "القيروان",
		"delegation": "الشراردة",
		"nom": "بئر الوصفان",
		"latitude": "35.2027900000",
		"longitude": "10.1497866667"
	},
	{
		"circonscription": "القيروان",
		"delegation": "الشراردة",
		"nom": "الشرايطية",
		"latitude": "35.1906133333",
		"longitude": "10.0731583333"
	},
	{
		"circonscription": "القيروان",
		"delegation": "الشراردة",
		"nom": "المساعدية الجنوبية",
		"latitude": "35.1064866667",
		"longitude": "10.0938816667"
	},
	{
		"circonscription": "القيروان",
		"delegation": "الشراردة",
		"nom": "بئر الحلو",
		"latitude": "35.1396733333",
		"longitude": "10.0642133333"
	},
	{
		"circonscription": "القيروان",
		"delegation": "nouveau centre",
		"nom": "nouveau centre",
		"latitude": "35.1800583333",
		"longitude": "10.1133216667"
	},
	{
		"circonscription": "القيروان",
		"delegation": "العلاء",
		"nom": "العلاء",
		"latitude": "35.6158283333",
		"longitude": "9.5653850000"
	},
	{
		"circonscription": "القيروان",
		"delegation": "العلاء",
		"nom": "المساعبد",
		"latitude": "35.7065366667",
		"longitude": "9.5110383333"
	},
	{
		"circonscription": "القيروان",
		"delegation": "العلاء",
		"nom": "النقاز",
		"latitude": "35.6152733333",
		"longitude": "9.4830200000"
	},
	{
		"circonscription": "القيروان",
		"delegation": "العلاء",
		"nom": "الجوامعية",
		"latitude": "35.6173500000",
		"longitude": "9.4019300000"
	},
	{
		"circonscription": "القيروان",
		"delegation": "العلاء",
		"nom": "أولاد عمر",
		"latitude": "35.6797583333",
		"longitude": "9.5333333333"
	},
	{
		"circonscription": "القيروان",
		"delegation": "العلاء",
		"nom": "المعامرية",
		"latitude": "35.6958483333",
		"longitude": "9.3481700000"
	},
	{
		"circonscription": "القيروان",
		"delegation": "العلاء",
		"nom": "صيادة",
		"latitude": "35.6778850000",
		"longitude": "9.3752233333"
	},
	{
		"circonscription": "القيروان",
		"delegation": "العلاء",
		"nom": "مسيوتة",
		"latitude": "35.6572450000",
		"longitude": "9.4177950000"
	},
	{
		"circonscription": "القيروان",
		"delegation": "العلاء",
		"nom": "طرزة الشمالية",
		"latitude": "35.5759533333",
		"longitude": "9.5369866667"
	},
	{
		"circonscription": "الكاف",
		"delegation": "الكاف الشرقية",
		"nom": "حي الشريشي",
		"latitude": "36.176110105793334",
		"longitude": "8.71375669571821"
	},
	{
		"circonscription": "الكاف",
		"delegation": "الكاف الشرقية",
		"nom": "وسط المدينة",
		"latitude": "36.176616306996344",
		"longitude": "8.706459030186781"
	},
	{
		"circonscription": "الكاف",
		"delegation": "الكاف الشرقية",
		"nom": "المحطة",
		"latitude": "36.17093879599691",
		"longitude": "8.700097444342356"
	},
	{
		"circonscription": "الكاف",
		"delegation": "الكاف الشرقية",
		"nom": "الحوارث",
		"latitude": "36.176509",
		"longitude": "8.7071642"
	},
	{
		"circonscription": "الكاف",
		"delegation": "الكاف الشرقية",
		"nom": "وادي السواني",
		"latitude": "36.17764062314203",
		"longitude": "8.933180104299163"
	},
	{
		"circonscription": "الكاف",
		"delegation": "الكاف الشرقية",
		"nom": "سيدي منصور",
		"latitude": "36.186719245148616",
		"longitude": "8.718739589711312"
	},
	{
		"circonscription": "الكاف",
		"delegation": "الكاف الغربية",
		"nom": "برنوصة",
		"latitude": "36.157119557344224",
		"longitude": "8.693004006168951"
	},
	{
		"circonscription": "الكاف",
		"delegation": "الكاف الغربية",
		"nom": "سواني العنب",
		"latitude": "36.16867818462913",
		"longitude": "8.691872451537875"
	},
	{
		"circonscription": "الكاف",
		"delegation": "الكاف الغربية",
		"nom": "وادي الرمل",
		"latitude": "36.13889323962396",
		"longitude": "8.657630095580032"
	},
	{
		"circonscription": "الكاف",
		"delegation": "نبر",
		"nom": "نبر",
		"latitude": "36.296174",
		"longitude": "8.7696081"
	},
	{
		"circonscription": "الكاف",
		"delegation": "نبر",
		"nom": "نبر pmi",
		"latitude": "36.304928970949064",
		"longitude": "8.7695409815626"
	},
	{
		"circonscription": "الكاف",
		"delegation": "نبر",
		"nom": "الطويرف",
		"latitude": "36.34070333895505",
		"longitude": "8.58081979875925"
	},
	{
		"circonscription": "الكاف",
		"delegation": "نبر",
		"nom": "بهرة",
		"latitude": "36.2495624870044",
		"longitude": "8.913474499804966"
	},
	{
		"circonscription": "الكاف",
		"delegation": "نبر",
		"nom": "برج العيفة",
		"latitude": "36.219613",
		"longitude": "8.8530846"
	},
	{
		"circonscription": "الكاف",
		"delegation": "نبر",
		"nom": "المحاسن",
		"latitude": "36.263704",
		"longitude": "8.8095309"
	},
	{
		"circonscription": "الكاف",
		"delegation": "نبر",
		"nom": "الزعترية",
		"latitude": "36.37132888502405",
		"longitude": "8.8315550360507"
	},
	{
		"circonscription": "الكاف",
		"delegation": "نبر",
		"nom": "ملاق",
		"latitude": "36.318966983014945",
		"longitude": "8.708500546142708"
	},
	{
		"circonscription": "الكاف",
		"delegation": "نبر",
		"nom": "سيدي خيار",
		"latitude": "36.35490598320628",
		"longitude": "8.791841185124473"
	},
	{
		"circonscription": "الكاف",
		"delegation": "نبر",
		"nom": "الخدايجية",
		"latitude": "36.33218081177378",
		"longitude": "8.816184134198291"
	},
	{
		"circonscription": "الكاف",
		"delegation": "نبر",
		"nom": "تل الغزلان",
		"latitude": "36.40412491488682",
		"longitude": "8.88676120439178"
	},
	{
		"circonscription": "الكاف",
		"delegation": "نبر",
		"nom": "الشتاتلة",
		"latitude": "36.37054445754919",
		"longitude": "8.968516824629532"
	},
	{
		"circonscription": "الكاف",
		"delegation": "نبر",
		"nom": "ملالة",
		"latitude": "36.355547617227344",
		"longitude": "8.688449769780263"
	},
	{
		"circonscription": "الكاف",
		"delegation": "نبر",
		"nom": "سركونة",
		"latitude": "36.226168",
		"longitude": "8.7325907"
	},
	{
		"circonscription": "الكاف",
		"delegation": "السرس",
		"nom": "وسط المدينة",
		"latitude": "36.07389008548298",
		"longitude": "9.017765242939575"
	},
	{
		"circonscription": "الكاف",
		"delegation": "السرس",
		"nom": "وسط المدينة pmi",
		"latitude": "36.074706569211244",
		"longitude": "9.026011917001643"
	},
	{
		"circonscription": "الكاف",
		"delegation": "السرس",
		"nom": "بوصليعة",
		"latitude": "36.03507551147701",
		"longitude": "8.999340343551264"
	},
	{
		"circonscription": "الكاف",
		"delegation": "السرس",
		"nom": "اللاس",
		"latitude": "35.95122028953364",
		"longitude": "9.09684466317728"
	},
	{
		"circonscription": "الكاف",
		"delegation": "السرس",
		"nom": "الربص قرية",
		"latitude": "36.071538",
		"longitude": "8.8386209"
	},
	{
		"circonscription": "الكاف",
		"delegation": "السرس",
		"nom": "المرجى",
		"latitude": "36.02780583938403",
		"longitude": "9.078705911062442"
	},
	{
		"circonscription": "الكاف",
		"delegation": "السرس",
		"nom": "التريشة",
		"latitude": "36.07679248184686",
		"longitude": "9.131618391870418"
	},
	{
		"circonscription": "الكاف",
		"delegation": "السرس",
		"nom": "الابار",
		"latitude": "36.0077595981864",
		"longitude": "9.114410972821328"
	},
	{
		"circonscription": "الكاف",
		"delegation": "السرس",
		"nom": "الاربص محطة",
		"latitude": "36.09887",
		"longitude": "8.9224084"
	},
	{
		"circonscription": "الكاف",
		"delegation": "الساقية",
		"nom": "وسط المدينة",
		"latitude": "36.224784650736304",
		"longitude": "8.357957033152597"
	},
	{
		"circonscription": "الكاف",
		"delegation": "الساقية",
		"nom": "وسط المدينة pmi",
		"latitude": "36.222012868524466",
		"longitude": "8.35306265531802"
	},
	{
		"circonscription": "الكاف",
		"delegation": "الساقية",
		"nom": "السفاية",
		"latitude": "36.270085",
		"longitude": "8.3704622"
	},
	{
		"circonscription": "الكاف",
		"delegation": "الساقية",
		"nom": "جرادو",
		"latitude": "36.27779156310074",
		"longitude": "8.45020316118192"
	},
	{
		"circonscription": "الكاف",
		"delegation": "الساقية",
		"nom": "عين الكرمة",
		"latitude": "36.128381",
		"longitude": "8.4334907"
	},
	{
		"circonscription": "الكاف",
		"delegation": "الساقية",
		"nom": "سيدي رابح",
		"latitude": "36.03295851400952",
		"longitude": "8.342494227595342"
	},
	{
		"circonscription": "الكاف",
		"delegation": "الساقية",
		"nom": "الطابية",
		"latitude": "36.031015",
		"longitude": "8.454901"
	},
	{
		"circonscription": "الكاف",
		"delegation": "تاجروين",
		"nom": "وسط المدينة",
		"latitude": "35.903624",
		"longitude": "8.5550106"
	},
	{
		"circonscription": "الكاف",
		"delegation": "تاجروين",
		"nom": "وسط المدينة pmi",
		"latitude": "35.88443264184722",
		"longitude": "8.552113327840462"
	},
	{
		"circonscription": "الكاف",
		"delegation": "تاجروين",
		"nom": "سيدي مطير",
		"latitude": "36.05179206900777",
		"longitude": "8.604309581128584"
	},
	{
		"circonscription": "الكاف",
		"delegation": "تاجروين",
		"nom": "جزة",
		"latitude": "35.964622752595496",
		"longitude": "8.622996600312443"
	},
	{
		"circonscription": "الكاف",
		"delegation": "تاجروين",
		"nom": "منزل سالم",
		"latitude": "35.855414",
		"longitude": "8.4757891"
	},
	{
		"circonscription": "الكاف",
		"delegation": "تاجروين",
		"nom": "الحوض",
		"latitude": "35.9045",
		"longitude": "8.6324684"
	},
	{
		"circonscription": "الكاف",
		"delegation": "تاجروين",
		"nom": "سيدي عبد الباسط",
		"latitude": "36.03946321731677",
		"longitude": "8.532247934003267"
	},
	{
		"circonscription": "الكاف",
		"delegation": "تاجروين",
		"nom": "قرن حلفاية",
		"latitude": "36.002519",
		"longitude": "8.4980288"
	},
	{
		"circonscription": "الكاف",
		"delegation": "تاجروين",
		"nom": "برج الديوانة",
		"latitude": "35.955614",
		"longitude": "8.3982059"
	},
	{
		"circonscription": "الكاف",
		"delegation": "تاجروين",
		"nom": "الغرايرية",
		"latitude": "35.910197",
		"longitude": "8.3999656"
	},
	{
		"circonscription": "الكاف",
		"delegation": "الجريصــة",
		"nom": "الجريصة",
		"latitude": "35.84342225627372",
		"longitude": "8.631691412251081"
	},
	{
		"circonscription": "الكاف",
		"delegation": "الجريصــة",
		"nom": "النعايمة",
		"latitude": "35.799638065063625",
		"longitude": "8.627160364683774"
	},
	{
		"circonscription": "الكاف",
		"delegation": "الجريصــة",
		"nom": "القراعية",
		"latitude": "35.81884910521035",
		"longitude": "8.66424288395903"
	},
	{
		"circonscription": "الكاف",
		"delegation": "الجريصــة",
		"nom": "الحيادرة",
		"latitude": "35.872718130428765",
		"longitude": "8.650564112412295"
	},
	{
		"circonscription": "الكاف",
		"delegation": "القلعة الخصبة",
		"nom": "القلعة الخصبــــــــة",
		"latitude": "35.66474",
		"longitude": "8.5870474"
	},
	{
		"circonscription": "الكاف",
		"delegation": "القلعة الخصبة",
		"nom": "سيدي أحمد الصالح",
		"latitude": "35.741522726572136",
		"longitude": "8.579043956920031"
	},
	{
		"circonscription": "الكاف",
		"delegation": "القلعة الخصبة",
		"nom": "هنطايـــــــــــــــة",
		"latitude": "35.695956607838774",
		"longitude": "8.559974425980261"
	},
	{
		"circonscription": "الكاف",
		"delegation": "القلعة الخصبة",
		"nom": "النــــــــــــــاظور",
		"latitude": "35.735525923427446",
		"longitude": "8.506713869675382"
	},
	{
		"circonscription": "الكاف",
		"delegation": "القلعة الخصبة",
		"nom": "القــــــــــــــــدح",
		"latitude": "35.716659510947736",
		"longitude": "8.430696874478712"
	},
	{
		"circonscription": "الكاف",
		"delegation": "قلعة سنان",
		"nom": "قلعة سنان",
		"latitude": "35.77918323546665",
		"longitude": "8.349625588308535"
	},
	{
		"circonscription": "الكاف",
		"delegation": "قلعة سنان",
		"nom": "قلعة سنان pmi",
		"latitude": "35.76627892012217",
		"longitude": "8.340378373433026"
	},
	{
		"circonscription": "الكاف",
		"delegation": "قلعة سنان",
		"nom": "عين سنان",
		"latitude": "35.745876",
		"longitude": "8.3626818"
	},
	{
		"circonscription": "الكاف",
		"delegation": "قلعة سنان",
		"nom": "بوجابر",
		"latitude": "35.742544987504246",
		"longitude": "8.298086741087157"
	},
	{
		"circonscription": "الكاف",
		"delegation": "قلعة سنان",
		"nom": "الصفصاف",
		"latitude": "35.702816623450744",
		"longitude": "8.397188584314578"
	},
	{
		"circonscription": "الكاف",
		"delegation": "قلعة سنان",
		"nom": "بوصالح",
		"latitude": "35.781896410927175",
		"longitude": "8.415979706332631"
	},
	{
		"circonscription": "الكاف",
		"delegation": "قلعة سنان",
		"nom": "أولاد إبراهيم",
		"latitude": "35.84986073642844",
		"longitude": "8.34943889751855"
	},
	{
		"circonscription": "الكاف",
		"delegation": "قلعة سنان",
		"nom": "الفالتة",
		"latitude": "35.881606",
		"longitude": "8.3067711"
	},
	{
		"circonscription": "الكاف",
		"delegation": "قلعة سنان",
		"nom": "مزيتـــــــــــة",
		"latitude": "35.82089697640287",
		"longitude": "8.48673737135841"
	},
	{
		"circonscription": "الكاف",
		"delegation": "قلعة سنان",
		"nom": "المحجوبــــة",
		"latitude": "35.810238",
		"longitude": "8.5034281"
	},
	{
		"circonscription": "الكاف",
		"delegation": "قلعة سنان",
		"nom": "بوهــــــراوة",
		"latitude": "35.77412908654751",
		"longitude": "8.519904610006957"
	},
	{
		"circonscription": "الكاف",
		"delegation": "الدهمــــاني",
		"nom": "الدهمانـــــــــــــي",
		"latitude": "35.93974192320708",
		"longitude": "8.826496699187608"
	},
	{
		"circonscription": "الكاف",
		"delegation": "الدهمــــاني",
		"nom": "الدهمانـــــــــــــي pmi",
		"latitude": "35.93948710613975",
		"longitude": "8.826636174056382"
	},
	{
		"circonscription": "الكاف",
		"delegation": "الدهمــــاني",
		"nom": "شركة الصابون",
		"latitude": "36.066514",
		"longitude": "8.7543576"
	},
	{
		"circonscription": "الكاف",
		"delegation": "الدهمــــاني",
		"nom": "عبيــــــــــــــدة",
		"latitude": "36.00049922680465",
		"longitude": "8.72695261484254"
	},
	{
		"circonscription": "الكاف",
		"delegation": "الدهمــــاني",
		"nom": "الماسخيــــــــة",
		"latitude": "35.912765",
		"longitude": "8.7385492"
	},
	{
		"circonscription": "الكاف",
		"delegation": "الدهمــــاني",
		"nom": "أولاد سعيـــــد",
		"latitude": "35.82815147552992",
		"longitude": "8.847854966544165"
	},
	{
		"circonscription": "الكاف",
		"delegation": "الدهمــــاني",
		"nom": "الشعانبــــــــــة",
		"latitude": "35.920647",
		"longitude": "8.9359695"
	},
	{
		"circonscription": "الكاف",
		"delegation": "الدهمــــاني",
		"nom": "الزواريــــــــن",
		"latitude": "36.02216982742793",
		"longitude": "8.903175148572097"
	},
	{
		"circonscription": "الكاف",
		"delegation": "الدهمــــاني",
		"nom": "ثرمـــــــــــدة",
		"latitude": "36.02067965009926",
		"longitude": "8.819125785124498"
	},
	{
		"circonscription": "الكاف",
		"delegation": "الدهمــــاني",
		"nom": "المدينــــــــــة",
		"latitude": "35.87762857170685",
		"longitude": "8.78347237652616"
	},
	{
		"circonscription": "الكاف",
		"delegation": "الدهمــــاني",
		"nom": "سيدي بركـات",
		"latitude": "35.82807266816364",
		"longitude": "8.79120535091371"
	},
	{
		"circonscription": "الكاف",
		"delegation": "القصور",
		"nom": "القصـــــــــور",
		"latitude": "35.89918105230626",
		"longitude": "8.87994237001164"
	},
	{
		"circonscription": "الكاف",
		"delegation": "القصور",
		"nom": "القصـــــــــور pmi",
		"latitude": "35.89731197840021",
		"longitude": "8.881668056431401"
	},
	{
		"circonscription": "الكاف",
		"delegation": "القصور",
		"nom": "الزيتونـــــة",
		"latitude": "35.81785926239802",
		"longitude": "8.985990469116513"
	},
	{
		"circonscription": "الكاف",
		"delegation": "القصور",
		"nom": "بانـــــــــــو",
		"latitude": "35.836914",
		"longitude": "8.8902746"
	},
	{
		"circonscription": "الكاف",
		"delegation": "القصور",
		"nom": "اللواتـــــــة",
		"latitude": "35.82877228113252",
		"longitude": "9.005861610919492"
	},
	{
		"circonscription": "الكاف",
		"delegation": "القصور",
		"nom": "عين فضيل",
		"latitude": "35.88250953691156",
		"longitude": "9.007217217665388"
	},
	{
		"circonscription": "الكاف",
		"delegation": "القصور",
		"nom": "عين قصيبة",
		"latitude": "35.789843",
		"longitude": "8.8416396"
	},
	{
		"circonscription": "الكاف",
		"delegation": "القصور",
		"nom": "العفســــات",
		"latitude": "35.856118314942755",
		"longitude": "8.954849993865758"
	},
	{
		"circonscription": "المنستير",
		"delegation": "المنستير",
		"nom": "الحي 2",
		"latitude": "35.7666797843",
		"longitude": "10.8185375948"
	},
	{
		"circonscription": "المنستير",
		"delegation": "المنستير",
		"nom": "الحي 6",
		"latitude": "35.7655980159",
		"longitude": "10.8277427685"
	},
	{
		"circonscription": "المنستير",
		"delegation": "المنستير",
		"nom": "سطح جابر",
		"latitude": "35.7618252793",
		"longitude": "10.8399215899"
	},
	{
		"circonscription": "المنستير",
		"delegation": "المنستير",
		"nom": "سقانص",
		"latitude": "35.7718201540",
		"longitude": "10.7967356779"
	},
	{
		"circonscription": "المنستير",
		"delegation": "المنستير",
		"nom": "حي البساتين",
		"latitude": "35.7606241945",
		"longitude": "10.8217756916"
	},
	{
		"circonscription": "المنستير",
		"delegation": "المنستير",
		"nom": "مركز رعاية الأم والطفل",
		"latitude": "35.7730979752",
		"longitude": "10.8204595651"
	},
	{
		"circonscription": "المنستير",
		"delegation": "المنستير",
		"nom": "خنيس1",
		"latitude": "35.7141023688",
		"longitude": "10.8178925235"
	},
	{
		"circonscription": "المنستير",
		"delegation": "المنستير",
		"nom": "خنيس 2",
		"latitude": "35.7095653284",
		"longitude": "10.8131947182"
	},
	{
		"circonscription": "المنستير",
		"delegation": "المنستير",
		"nom": "الحي الرابع",
		"latitude": "35.7732465025",
		"longitude": "10.8201280609"
	},
	{
		"circonscription": "المنستير",
		"delegation": "زرمدين",
		"nom": "زرمدين 1",
		"latitude": "35.5731026223",
		"longitude": "10.7334447652"
	},
	{
		"circonscription": "المنستير",
		"delegation": "زرمدين",
		"nom": "زرمدين 2",
		"latitude": "35.5782176787",
		"longitude": "10.7356810570"
	},
	{
		"circonscription": "المنستير",
		"delegation": "زرمدين",
		"nom": "رعاية الأم والطفل",
		"latitude": "35.5735134194",
		"longitude": "10.7337679714"
	},
	{
		"circonscription": "المنستير",
		"delegation": "زرمدين",
		"nom": "منزل حياة 2",
		"latitude": "35.5386810796",
		"longitude": "10.6311598979"
	},
	{
		"circonscription": "المنستير",
		"delegation": "زرمدين",
		"nom": "لريام",
		"latitude": "35.5386850610",
		"longitude": "10.6070929393"
	},
	{
		"circonscription": "المنستير",
		"delegation": "زرمدين",
		"nom": "أولاد العرضاوي",
		"latitude": "35.5285767373",
		"longitude": "10.5922209285"
	},
	{
		"circonscription": "المنستير",
		"delegation": "زرمدين",
		"nom": "المزاوغة",
		"latitude": "35.5420254590",
		"longitude": "10.5746253859"
	},
	{
		"circonscription": "المنستير",
		"delegation": "زرمدين",
		"nom": "المليشات",
		"latitude": "35.5115494458",
		"longitude": "10.5318803620"
	},
	{
		"circonscription": "المنستير",
		"delegation": "زرمدين",
		"nom": "المزاوغة الشمالية",
		"latitude": "35.5778652616",
		"longitude": "10.5588070583"
	},
	{
		"circonscription": "المنستير",
		"delegation": "جمال",
		"nom": "جمال 1",
		"latitude": "35.6277644914",
		"longitude": "10.7588254195"
	},
	{
		"circonscription": "المنستير",
		"delegation": "جمال",
		"nom": "سيدي عبد القادر",
		"latitude": "35.6220899010",
		"longitude": "10.7583841961"
	},
	{
		"circonscription": "المنستير",
		"delegation": "جمال",
		"nom": "جمال 3",
		"latitude": "35.6280253362",
		"longitude": "10.7739633881"
	},
	{
		"circonscription": "المنستير",
		"delegation": "جمال",
		"nom": "الفتح",
		"latitude": "35.6112690317",
		"longitude": "10.7572248112"
	},
	{
		"circonscription": "المنستير",
		"delegation": "جمال",
		"nom": "زاوية قنطش",
		"latitude": "35.6381282117",
		"longitude": "10.7650842704"
	},
	{
		"circonscription": "المنستير",
		"delegation": "جمال",
		"nom": "منزل كامل",
		"latitude": "35.6236931076",
		"longitude": "10.6740133837"
	},
	{
		"circonscription": "المنستير",
		"delegation": "جمال",
		"nom": "بئر الطيب",
		"latitude": "35.6507989671",
		"longitude": "10.6947658025"
	},
	{
		"circonscription": "المنستير",
		"delegation": "جمال",
		"nom": "الهدادرة",
		"latitude": "35.6048020581",
		"longitude": "10.6040859316"
	},
	{
		"circonscription": "المنستير",
		"delegation": "جمال",
		"nom": "الطيايرة",
		"latitude": "35.5774005689",
		"longitude": "10.7741469517"
	},
	{
		"circonscription": "المنستير",
		"delegation": "جمال",
		"nom": "c.ex",
		"latitude": "35.6160039688",
		"longitude": "10.7535262126"
	},
	{
		"circonscription": "المنستير",
		"delegation": "جمال",
		"nom": "قاعة علاج منزل كامل",
		"latitude": "35.6268336391",
		"longitude": "10.6631825399"
	},
	{
		"circonscription": "المنستير",
		"delegation": "nouveau centre",
		"nom": "nouveau centre",
		"latitude": "35.6150296563",
		"longitude": "10.7541155443"
	},
	{
		"circonscription": "المنستير",
		"delegation": "صيادة",
		"nom": "بوحجر",
		"latitude": "35.6710480526",
		"longitude": "10.8688572608"
	},
	{
		"circonscription": "المنستير",
		"delegation": "صيادة",
		"nom": "صيادة 1",
		"latitude": "35.6641795440",
		"longitude": "10.8906295896"
	},
	{
		"circonscription": "المنستير",
		"delegation": "صيادة",
		"nom": "صيادة 2",
		"latitude": "35.6710589072",
		"longitude": "10.8943092450"
	},
	{
		"circonscription": "المنستير",
		"delegation": "صيادة",
		"nom": "صيادة 3",
		"latitude": "35.6658621272",
		"longitude": "10.9030130133"
	},
	{
		"circonscription": "المنستير",
		"delegation": "صيادة",
		"nom": "لمطة",
		"latitude": "35.6757773319",
		"longitude": "10.8810573723"
	},
	{
		"circonscription": "المنستير",
		"delegation": "قصر هلال",
		"nom": "حي الرياض 1",
		"latitude": "35.6516615907",
		"longitude": "10.8731862623"
	},
	{
		"circonscription": "المنستير",
		"delegation": "قصر هلال",
		"nom": "حي الرياض 2",
		"latitude": "35.6549558882",
		"longitude": "10.8633526973"
	},
	{
		"circonscription": "المنستير",
		"delegation": "قصر هلال",
		"nom": "حشاد",
		"latitude": "35.6363416929",
		"longitude": "10.8824026678"
	},
	{
		"circonscription": "المنستير",
		"delegation": "قصر هلال",
		"nom": "البشير الشريف",
		"latitude": "35.6457570428",
		"longitude": "10.8979505114"
	},
	{
		"circonscription": "المنستير",
		"delegation": "قصر هلال",
		"nom": "سكرة",
		"latitude": "35.6520554144",
		"longitude": "10.9016731661"
	},
	{
		"circonscription": "المنستير",
		"delegation": "قصر هلال",
		"nom": "حي هلال",
		"latitude": "35.6526706461",
		"longitude": "10.8923038747"
	},
	{
		"circonscription": "المنستير",
		"delegation": "nouveau centre",
		"nom": "nouveau centre",
		"latitude": "35.6511424994",
		"longitude": "10.8886669669"
	},
	{
		"circonscription": "المنستير",
		"delegation": "المكنين",
		"nom": "المكنين 1",
		"latitude": "35.6267511193",
		"longitude": "10.9013081342"
	},
	{
		"circonscription": "المنستير",
		"delegation": "المكنين",
		"nom": "المكنين 2",
		"latitude": "35.6369844172",
		"longitude": "10.9054631274"
	},
	{
		"circonscription": "المنستير",
		"delegation": "المكنين",
		"nom": "المكنين 3",
		"latitude": "35.6269910512",
		"longitude": "10.8945198823"
	},
	{
		"circonscription": "المنستير",
		"delegation": "المكنين",
		"nom": "المكنين 4",
		"latitude": "35.6320181396",
		"longitude": "10.9122119006"
	},
	{
		"circonscription": "المنستير",
		"delegation": "المكنين",
		"nom": "زمرين",
		"latitude": "35.6232131179",
		"longitude": "10.8839076385"
	},
	{
		"circonscription": "المنستير",
		"delegation": "المكنين",
		"nom": "عميرة الحجاج",
		"latitude": "35.5011600768",
		"longitude": "10.8206210006"
	},
	{
		"circonscription": "المنستير",
		"delegation": "المكنين",
		"nom": "عميرة الفحول",
		"latitude": "35.4447488626",
		"longitude": "10.8279019408"
	},
	{
		"circonscription": "المنستير",
		"delegation": "المكنين",
		"nom": "عميرة التوازرة",
		"latitude": "35.4845007090",
		"longitude": "10.7636360452"
	},
	{
		"circonscription": "المنستير",
		"delegation": "المكنين",
		"nom": "سيدي بنور",
		"latitude": "35.5253257742",
		"longitude": "10.9116963297"
	},
	{
		"circonscription": "المنستير",
		"delegation": "المكنين",
		"nom": "منزل فارسي",
		"latitude": "35.5511325225",
		"longitude": "10.8693908527"
	},
	{
		"circonscription": "المنستير",
		"delegation": "المكنين",
		"nom": "الشراحيل",
		"latitude": "35.5081642466",
		"longitude": "10.8529687766"
	},
	{
		"circonscription": "المنستير",
		"delegation": "المكنين",
		"nom": "الخور",
		"latitude": "35.5000316631",
		"longitude": "10.7868393324"
	},
	{
		"circonscription": "المنستير",
		"delegation": "المكنين",
		"nom": "المرازقة",
		"latitude": "35.4771101754",
		"longitude": "10.8051942755"
	},
	{
		"circonscription": "المنستير",
		"delegation": "المكنين",
		"nom": "أولاد عزيزة",
		"latitude": "35.5182160344",
		"longitude": "10.8167665824"
	},
	{
		"circonscription": "المنستير",
		"delegation": "المكنين",
		"nom": "القراوة",
		"latitude": "35.4551770817",
		"longitude": "10.8095932659"
	},
	{
		"circonscription": "المنستير",
		"delegation": "المكنين",
		"nom": "الحوم",
		"latitude": "35.5246900488",
		"longitude": "10.8844154142"
	},
	{
		"circonscription": "المنستير",
		"delegation": "المكنين",
		"nom": "الشواشين",
		"latitude": "35.5743446108",
		"longitude": "10.8475499600"
	},
	{
		"circonscription": "المنستير",
		"delegation": "المكنين",
		"nom": "رعاية الأم والطفل",
		"latitude": "35.6262816489",
		"longitude": "10.9016160853"
	},
	{
		"circonscription": "المنستير",
		"delegation": "المكنين",
		"nom": "حي النور",
		"latitude": "35.6160134822",
		"longitude": "10.8887793683"
	},
	{
		"circonscription": "المنستير",
		"delegation": "nouveau centre",
		"nom": "nouveau centre",
		"latitude": "35.6340208277",
		"longitude": "10.9100673907"
	},
	{
		"circonscription": "المنستير",
		"delegation": "قصيبة المديوني",
		"nom": "المستشفى",
		"latitude": "35.6815038063",
		"longitude": "10.8527202532"
	},
	{
		"circonscription": "المنستير",
		"delegation": "قصيبة المديوني",
		"nom": "بنان 1",
		"latitude": "35.6741856504",
		"longitude": "10.8401719574"
	},
	{
		"circonscription": "المنستير",
		"delegation": "قصيبة المديوني",
		"nom": "بنان 2",
		"latitude": "35.6722623389",
		"longitude": "10.8313057479"
	},
	{
		"circonscription": "المنستير",
		"delegation": "قصيبة المديوني",
		"nom": "بوضر",
		"latitude": "35.6578879617",
		"longitude": "10.8270614874"
	},
	{
		"circonscription": "المنستير",
		"delegation": "قصيبة المديوني",
		"nom": "طوزة",
		"latitude": "35.6338742282",
		"longitude": "10.8286339324"
	},
	{
		"circonscription": "المنستير",
		"delegation": "قصيبة المديوني",
		"nom": "قصيبة المديوني",
		"latitude": "35.6888002111",
		"longitude": "10.8426720276"
	},
	{
		"circonscription": "المنستير",
		"delegation": "طبلبة",
		"nom": "المستشفى",
		"latitude": "35.6412377721",
		"longitude": "10.9683476016"
	},
	{
		"circonscription": "المنستير",
		"delegation": "طبلبة",
		"nom": "الرياض",
		"latitude": "35.6406627316",
		"longitude": "10.9734272026"
	},
	{
		"circonscription": "المنستير",
		"delegation": "طبلبة",
		"nom": "بودريس",
		"latitude": "35.6410560524",
		"longitude": "10.9591203835"
	},
	{
		"circonscription": "المنستير",
		"delegation": "طبلبة",
		"nom": "سكرين",
		"latitude": "35.6518670730",
		"longitude": "10.9492431488"
	},
	{
		"circonscription": "المنستير",
		"delegation": "طبلبة",
		"nom": "فضلين",
		"latitude": "35.6414973177",
		"longitude": "10.9906294663"
	},
	{
		"circonscription": "المنستير",
		"delegation": "طبلبة",
		"nom": "شط بالريانة",
		"latitude": "35.6535374187",
		"longitude": "10.9628639929"
	},
	{
		"circonscription": "المنستير",
		"delegation": "بنبلة",
		"nom": "بنبلة",
		"latitude": "35.6948789349",
		"longitude": "10.7932279352"
	},
	{
		"circonscription": "المنستير",
		"delegation": "بنبلة",
		"nom": "منزل النور 1",
		"latitude": "35.6715642521",
		"longitude": "10.7806829922"
	},
	{
		"circonscription": "المنستير",
		"delegation": "بنبلة",
		"nom": "المصدور",
		"latitude": "35.6814028462",
		"longitude": "10.7310271729"
	},
	{
		"circonscription": "المنستير",
		"delegation": "بنبلة",
		"nom": "منزل الحرب",
		"latitude": "35.7018865831",
		"longitude": "10.7435949147"
	},
	{
		"circonscription": "المنستير",
		"delegation": "بنبلة",
		"nom": "المنارة",
		"latitude": "35.6986133661",
		"longitude": "10.7820110209"
	},
	{
		"circonscription": "المنستير",
		"delegation": "بنبلة",
		"nom": "المستشفى",
		"latitude": "35.6837765174",
		"longitude": "10.7882644236"
	},
	{
		"circonscription": "المنستير",
		"delegation": "بنبلة",
		"nom": "منزل النور 2",
		"latitude": "35.6639213394",
		"longitude": "10.7753702067"
	},
	{
		"circonscription": "المنستير",
		"delegation": "البقالطة",
		"nom": "المستشفى",
		"latitude": "35.6179104326",
		"longitude": "10.9911924787"
	},
	{
		"circonscription": "المنستير",
		"delegation": "البقالطة",
		"nom": "الشرف",
		"latitude": "35.6038588006",
		"longitude": "11.0306295846"
	},
	{
		"circonscription": "المنستير",
		"delegation": "البقالطة",
		"nom": "زبيد",
		"latitude": "35.6311066914",
		"longitude": "11.0130677372"
	},
	{
		"circonscription": "المنستير",
		"delegation": "البقالطة",
		"nom": "بحيرة",
		"latitude": "35.6141564297",
		"longitude": "11.0300542507"
	},
	{
		"circonscription": "المنستير",
		"delegation": "البقالطة",
		"nom": "بغدادي",
		"latitude": "35.5706569925",
		"longitude": "11.0179024190"
	},
	{
		"circonscription": "المنستير",
		"delegation": "الوردانين",
		"nom": "المستشفى",
		"latitude": "35.7095480198",
		"longitude": "10.6690045260"
	},
	{
		"circonscription": "المنستير",
		"delegation": "الوردانين",
		"nom": "الوردانين 2",
		"latitude": "35.7114376780",
		"longitude": "10.6805670261"
	},
	{
		"circonscription": "المنستير",
		"delegation": "الوردانين",
		"nom": "منزل خير",
		"latitude": "35.6977900118",
		"longitude": "10.7094765455"
	},
	{
		"circonscription": "المنستير",
		"delegation": "الوردانين",
		"nom": "بوعثمان",
		"latitude": "35.6777438940",
		"longitude": "10.6981166359"
	},
	{
		"circonscription": "المنستير",
		"delegation": "الوردانين",
		"nom": "واد الجبس",
		"latitude": "35.6646906724",
		"longitude": "10.6879577693"
	},
	{
		"circonscription": "المنستير",
		"delegation": "الساحلين",
		"nom": "المستشفى",
		"latitude": "35.7538675424",
		"longitude": "10.7082870696"
	},
	{
		"circonscription": "المنستير",
		"delegation": "الساحلين",
		"nom": "سيدي عامر",
		"latitude": "35.7485477999",
		"longitude": "10.7016217802"
	},
	{
		"circonscription": "المنستير",
		"delegation": "الساحلين",
		"nom": "مسجد عيسى",
		"latitude": "35.7218165277",
		"longitude": "10.7147617545"
	},
	{
		"circonscription": "المنستير",
		"delegation": "الساحلين",
		"nom": "معتمر",
		"latitude": "35.7514880877",
		"longitude": "10.6935646757"
	},
	{
		"circonscription": "المنستير",
		"delegation": "بني حسان",
		"nom": "بني حسان 1",
		"latitude": "35.5679748254",
		"longitude": "10.8054852113"
	},
	{
		"circonscription": "المنستير",
		"delegation": "بني حسان",
		"nom": "النهوض",
		"latitude": "35.5739369988",
		"longitude": "10.8148705121"
	},
	{
		"circonscription": "المنستير",
		"delegation": "بني حسان",
		"nom": "جنايحة",
		"latitude": "35.5280214781",
		"longitude": "10.7766749337"
	},
	{
		"circonscription": "المنستير",
		"delegation": "بني حسان",
		"nom": "غنادة",
		"latitude": "35.4961304739",
		"longitude": "10.6966731045"
	},
	{
		"circonscription": "المنستير",
		"delegation": "بني حسان",
		"nom": "عميرة حاتم",
		"latitude": "35.5307708681",
		"longitude": "10.7466666307"
	},
	{
		"circonscription": "المنستير",
		"delegation": "nouveau centre",
		"nom": "nouveau centre",
		"latitude": "35.5704574613",
		"longitude": "10.8044223860"
	},
	{
		"circonscription": "المهدية",
		"delegation": "السواسي",
		"nom": "مستشفى السواسي",
		"latitude": "35.3435226297",
		"longitude": "10.5451294687"
	},
	{
		"circonscription": "المهدية",
		"delegation": "السواسي",
		"nom": "السواسي",
		"latitude": "35.3409852181",
		"longitude": "10.5455019604"
	},
	{
		"circonscription": "المهدية",
		"delegation": "السواسي",
		"nom": "مركز رعاية الأم والطفل",
		"latitude": "35.3409700468",
		"longitude": "10.5456609651"
	},
	{
		"circonscription": "المهدية",
		"delegation": "السواسي",
		"nom": "سيدي زيد",
		"latitude": "35.3678941028",
		"longitude": "10.5024265219"
	},
	{
		"circonscription": "المهدية",
		"delegation": "السواسي",
		"nom": "الشحيمات الجنوبية",
		"latitude": "35.3908445081",
		"longitude": "10.4604747612"
	},
	{
		"circonscription": "المهدية",
		"delegation": "السواسي",
		"nom": "الرجيبات",
		"latitude": "35.3543356201",
		"longitude": "10.4105563369"
	},
	{
		"circonscription": "المهدية",
		"delegation": "السواسي",
		"nom": "الحثرمين",
		"latitude": "35.3591993032",
		"longitude": "10.4487835988"
	},
	{
		"circonscription": "المهدية",
		"delegation": "السواسي",
		"nom": "الزعيرات",
		"latitude": "35.3131089779",
		"longitude": "10.4187035467"
	},
	{
		"circonscription": "المهدية",
		"delegation": "السواسي",
		"nom": "الثوابتية",
		"latitude": "35.3040496493",
		"longitude": "10.5171862990"
	},
	{
		"circonscription": "المهدية",
		"delegation": "السواسي",
		"nom": "القدارات",
		"latitude": "35.2836931916",
		"longitude": "10.5360370316"
	},
	{
		"circonscription": "المهدية",
		"delegation": "السواسي",
		"nom": "سيدي بوهلال",
		"latitude": "35.2758193156",
		"longitude": "10.5673638918"
	},
	{
		"circonscription": "المهدية",
		"delegation": "السواسي",
		"nom": "المنصورة",
		"latitude": "35.3158515785",
		"longitude": "10.6114635989"
	},
	{
		"circonscription": "المهدية",
		"delegation": "السواسي",
		"nom": "الكساكسة",
		"latitude": "35.3784413869",
		"longitude": "10.6400645804"
	},
	{
		"circonscription": "المهدية",
		"delegation": "السواسي",
		"nom": "أولاد عبد الله السواسي",
		"latitude": "35.4138064804",
		"longitude": "10.6162987836"
	},
	{
		"circonscription": "المهدية",
		"delegation": "السواسي",
		"nom": "أولاد عمر السيدة",
		"latitude": "35.3635648498",
		"longitude": "10.5713411048"
	},
	{
		"circonscription": "المهدية",
		"delegation": "الجم",
		"nom": "مستشفى الجم",
		"latitude": "35.2889320906",
		"longitude": "10.7058662921"
	},
	{
		"circonscription": "المهدية",
		"delegation": "الجم",
		"nom": "طريق سوسة",
		"latitude": "35.2986255940",
		"longitude": "10.7055665553"
	},
	{
		"circonscription": "المهدية",
		"delegation": "الجم",
		"nom": "طريق صفاقس",
		"latitude": "35.2901900886",
		"longitude": "10.7057095505"
	},
	{
		"circonscription": "المهدية",
		"delegation": "الجم",
		"nom": "العبابسة",
		"latitude": "35.3887841105",
		"longitude": "10.7690127846"
	},
	{
		"circonscription": "المهدية",
		"delegation": "الجم",
		"nom": "التلالسة",
		"latitude": "35.3522339836",
		"longitude": "10.7901214343"
	},
	{
		"circonscription": "المهدية",
		"delegation": "الجم",
		"nom": "الطواهرة",
		"latitude": "35.3238929668",
		"longitude": "10.7985745836"
	},
	{
		"circonscription": "المهدية",
		"delegation": "الجم",
		"nom": "العشابة",
		"latitude": "35.3041806584",
		"longitude": "10.7933154423"
	},
	{
		"circonscription": "المهدية",
		"delegation": "الجم",
		"nom": "واد حمودة",
		"latitude": "35.2679516841",
		"longitude": "10.7549202070"
	},
	{
		"circonscription": "المهدية",
		"delegation": "الجم",
		"nom": "واد عرجون",
		"latitude": "35.2696564794",
		"longitude": "10.8111538924"
	},
	{
		"circonscription": "المهدية",
		"delegation": "الجم",
		"nom": "الزغابنة",
		"latitude": "35.2358175209",
		"longitude": "10.7085884828"
	},
	{
		"circonscription": "المهدية",
		"delegation": "الجم",
		"nom": "رياض بوهلال",
		"latitude": "35.2594013885",
		"longitude": "10.6044248957"
	},
	{
		"circonscription": "المهدية",
		"delegation": "الجم",
		"nom": "أولاد الحاج",
		"latitude": "35.2691629110",
		"longitude": "10.6051262096"
	},
	{
		"circonscription": "المهدية",
		"delegation": "الجم",
		"nom": "العبثة",
		"latitude": "35.2755841613",
		"longitude": "10.6415662821"
	},
	{
		"circonscription": "المهدية",
		"delegation": "الجم",
		"nom": "الفرجان أولاد بريك",
		"latitude": "35.3478122782",
		"longitude": "10.6752327830"
	},
	{
		"circonscription": "المهدية",
		"delegation": "الشابة",
		"nom": "مستشفى الشابة",
		"latitude": "35.2345594391",
		"longitude": "11.1137486435"
	},
	{
		"circonscription": "المهدية",
		"delegation": "الشابة",
		"nom": "رعاية الأم والطفل",
		"latitude": "35.2349747624",
		"longitude": "11.1144742649"
	},
	{
		"circonscription": "المهدية",
		"delegation": "الشابة",
		"nom": "السعفات",
		"latitude": "35.2678940166",
		"longitude": "11.0401414521"
	},
	{
		"circonscription": "المهدية",
		"delegation": "الشابة",
		"nom": "الشابة الشمالية",
		"latitude": "35.2420366835",
		"longitude": "11.1133813486"
	},
	{
		"circonscription": "المهدية",
		"delegation": "الشابة",
		"nom": "الشابة الشرقية",
		"latitude": "35.2381249331",
		"longitude": "11.1190277338"
	},
	{
		"circonscription": "المهدية",
		"delegation": "الشابة",
		"nom": "الوهاب",
		"latitude": "35.2345062140",
		"longitude": "11.1137070693"
	},
	{
		"circonscription": "المهدية",
		"delegation": "قصور الساف",
		"nom": "مستشفى قصور الساف",
		"latitude": "35.4060525913",
		"longitude": "11.0243251361"
	},
	{
		"circonscription": "المهدية",
		"delegation": "قصور الساف",
		"nom": "رعاية الأم والطفل( القصر)",
		"latitude": "35.4183594463",
		"longitude": "10.9996843524"
	},
	{
		"circonscription": "المهدية",
		"delegation": "قصور الساف",
		"nom": "البرادعة",
		"latitude": "35.3497311473",
		"longitude": "10.9927163925"
	},
	{
		"circonscription": "المهدية",
		"delegation": "قصور الساف",
		"nom": "الرشارشة",
		"latitude": "35.3040917264",
		"longitude": "10.9854787868"
	},
	{
		"circonscription": "المهدية",
		"delegation": "قصور الساف",
		"nom": "الحسينات",
		"latitude": "35.3238197509",
		"longitude": "10.9892399143"
	},
	{
		"circonscription": "المهدية",
		"delegation": "قصور الساف",
		"nom": "الغضابنة",
		"latitude": "35.2889191825",
		"longitude": "11.0503729060"
	},
	{
		"circonscription": "المهدية",
		"delegation": "قصور الساف",
		"nom": "أولاد صالح",
		"latitude": "35.4364797799",
		"longitude": "10.9207102284"
	},
	{
		"circonscription": "المهدية",
		"delegation": "قصور الساف",
		"nom": "سيدي عساكر",
		"latitude": "35.4152277578",
		"longitude": "10.8830892295"
	},
	{
		"circonscription": "المهدية",
		"delegation": "قصور الساف",
		"nom": "شارع بورقيبة",
		"latitude": "35.4208755260",
		"longitude": "10.9951618128"
	},
	{
		"circonscription": "المهدية",
		"delegation": "قصور الساف",
		"nom": "23 مارس",
		"latitude": "35.4145094287",
		"longitude": "11.0013849568"
	},
	{
		"circonscription": "المهدية",
		"delegation": "قصور الساف",
		"nom": "حشاد",
		"latitude": "35.4175751517",
		"longitude": "10.9841601457"
	},
	{
		"circonscription": "المهدية",
		"delegation": "قصور الساف",
		"nom": "سلقطة",
		"latitude": "35.3934450354",
		"longitude": "11.0446107667"
	},
	{
		"circonscription": "المهدية",
		"delegation": "المهدية",
		"nom": "مجمع الصحة الأساسية (زويلة)",
		"latitude": "35.4983584676",
		"longitude": "11.0586165078"
	},
	{
		"circonscription": "المهدية",
		"delegation": "المهدية",
		"nom": "رعاية الأم والطفل",
		"latitude": "35.4985527182",
		"longitude": "11.0587260593"
	},
	{
		"circonscription": "المهدية",
		"delegation": "المهدية",
		"nom": "برج عريف",
		"latitude": "35.5071044387",
		"longitude": "11.0276142787"
	},
	{
		"circonscription": "المهدية",
		"delegation": "المهدية",
		"nom": "شيبة",
		"latitude": "35.5240096897",
		"longitude": "10.9367141314"
	},
	{
		"circonscription": "المهدية",
		"delegation": "المهدية",
		"nom": "السعد",
		"latitude": "35.4674649937",
		"longitude": "10.9331147745"
	},
	{
		"circonscription": "المهدية",
		"delegation": "المهدية",
		"nom": "الزهراء",
		"latitude": "35.5006258981",
		"longitude": "11.0476274136"
	},
	{
		"circonscription": "المهدية",
		"delegation": "المهدية",
		"nom": "هيبون",
		"latitude": "35.5135424947",
		"longitude": "11.0417726543"
	},
	{
		"circonscription": "المهدية",
		"delegation": "المهدية",
		"nom": "الحكايمة الشرقية",
		"latitude": "35.4707827605",
		"longitude": "10.8877615537"
	},
	{
		"circonscription": "المهدية",
		"delegation": "المهدية",
		"nom": "الحكايمة الغربية",
		"latitude": "35.4512924887",
		"longitude": "10.8543365356"
	},
	{
		"circonscription": "المهدية",
		"delegation": "المهدية",
		"nom": "الجواودة",
		"latitude": "35.4826633539",
		"longitude": "10.8721328247"
	},
	{
		"circonscription": "المهدية",
		"delegation": "المهدية",
		"nom": "رجيش",
		"latitude": "35.4658671934",
		"longitude": "11.0420069285"
	},
	{
		"circonscription": "المهدية",
		"delegation": "المهدية",
		"nom": "الزقانة",
		"latitude": "35.4946564743",
		"longitude": "11.0476866737"
	},
	{
		"circonscription": "المهدية",
		"delegation": "المهدية",
		"nom": "برج الرأس",
		"latitude": "35.5068593938",
		"longitude": "11.0767472349"
	},
	{
		"circonscription": "المهدية",
		"delegation": "المهدية",
		"nom": "أولاد الذوادي",
		"latitude": "35.4489104776",
		"longitude": "10.8762033284"
	},
	{
		"circonscription": "المهدية",
		"delegation": "المهدية",
		"nom": "المهدية المدينة",
		"latitude": "35.5028418638",
		"longitude": "11.0637456458"
	},
	{
		"circonscription": "المهدية",
		"delegation": "المهدية",
		"nom": "السعفات المهدية",
		"latitude": "35.5085289432",
		"longitude": "10.9624314029"
	},
	{
		"circonscription": "المهدية",
		"delegation": "المهدية",
		"nom": "المنصورية",
		"latitude": "35.4967392934",
		"longitude": "10.8901246637"
	},
	{
		"circonscription": "المهدية",
		"delegation": "ملولش",
		"nom": "مستشفى ملولش",
		"latitude": "35.1666716393",
		"longitude": "11.0407855175"
	},
	{
		"circonscription": "المهدية",
		"delegation": "ملولش",
		"nom": "المداس",
		"latitude": "35.1415624330",
		"longitude": "10.9980758652"
	},
	{
		"circonscription": "المهدية",
		"delegation": "ملولش",
		"nom": "أولاد جاب الله",
		"latitude": "35.2054657275",
		"longitude": "10.9190449957"
	},
	{
		"circonscription": "المهدية",
		"delegation": "ملولش",
		"nom": "بني طورش",
		"latitude": "35.2369968966",
		"longitude": "10.9744161833"
	},
	{
		"circonscription": "المهدية",
		"delegation": "ملولش",
		"nom": "المنصورة",
		"latitude": "35.1752348011",
		"longitude": "10.9306611400"
	},
	{
		"circonscription": "المهدية",
		"delegation": "ملولش",
		"nom": "أولاد عبد الله ملولش",
		"latitude": "35.1866754703",
		"longitude": "10.9879397135"
	},
	{
		"circonscription": "المهدية",
		"delegation": "سيدي علوان",
		"nom": "مستشفى سيدى علوان",
		"latitude": "35.3850434767",
		"longitude": "10.9320206009"
	},
	{
		"circonscription": "المهدية",
		"delegation": "سيدي علوان",
		"nom": "سيدي علوان",
		"latitude": "35.3698223596",
		"longitude": "10.9372550156"
	},
	{
		"circonscription": "المهدية",
		"delegation": "سيدي علوان",
		"nom": "زردة",
		"latitude": "35.2905187011",
		"longitude": "10.9178966749"
	},
	{
		"circonscription": "المهدية",
		"delegation": "سيدي علوان",
		"nom": "زالبة الغربية",
		"latitude": "35.2017189749",
		"longitude": "10.8493489679"
	},
	{
		"circonscription": "المهدية",
		"delegation": "سيدي علوان",
		"nom": "زالبة الشرقية",
		"latitude": "35.2461479651",
		"longitude": "10.9050692618"
	},
	{
		"circonscription": "المهدية",
		"delegation": "سيدي علوان",
		"nom": "النزهة",
		"latitude": "35.1685040910",
		"longitude": "10.8439222723"
	},
	{
		"circonscription": "المهدية",
		"delegation": "سيدي علوان",
		"nom": "السعفات",
		"latitude": "35.3097234853",
		"longitude": "10.8505742345"
	},
	{
		"circonscription": "المهدية",
		"delegation": "سيدي علوان",
		"nom": "واد باجة",
		"latitude": "35.3453859268",
		"longitude": "10.8801182639"
	},
	{
		"circonscription": "المهدية",
		"delegation": "سيدي علوان",
		"nom": "سيدي علي غدير",
		"latitude": "35.3708929382",
		"longitude": "10.8923748694"
	},
	{
		"circonscription": "المهدية",
		"delegation": "سيدي علوان",
		"nom": "ساقية الخادم",
		"latitude": "35.3839797294",
		"longitude": "10.8722307254"
	},
	{
		"circonscription": "المهدية",
		"delegation": "سيدي علوان",
		"nom": "واد قلات",
		"latitude": "35.3939636657",
		"longitude": "10.8419821132"
	},
	{
		"circonscription": "المهدية",
		"delegation": "سيدي علوان",
		"nom": "أولاد الميساوي",
		"latitude": "35.3871853882",
		"longitude": "10.9131208342"
	},
	{
		"circonscription": "المهدية",
		"delegation": "شربان",
		"nom": "مستشفى شربان",
		"latitude": "35.2886353293",
		"longitude": "10.3890512232"
	},
	{
		"circonscription": "المهدية",
		"delegation": "شربان",
		"nom": "النفاتية",
		"latitude": "35.1611391222",
		"longitude": "10.4280848242"
	},
	{
		"circonscription": "المهدية",
		"delegation": "شربان",
		"nom": "أولاد عبد النبي",
		"latitude": "35.3155885125",
		"longitude": "10.3637483530"
	},
	{
		"circonscription": "المهدية",
		"delegation": "شربان",
		"nom": "القرادحة الشرقية",
		"latitude": "35.2186231362",
		"longitude": "10.4917591251"
	},
	{
		"circonscription": "المهدية",
		"delegation": "شربان",
		"nom": "أولاد الحناشي",
		"latitude": "35.3053691704",
		"longitude": "10.4595324676"
	},
	{
		"circonscription": "المهدية",
		"delegation": "شربان",
		"nom": "الشحدة الشرقية",
		"latitude": "35.2583928360",
		"longitude": "10.3256612364"
	},
	{
		"circonscription": "المهدية",
		"delegation": "شربان",
		"nom": "أولاد شريفة",
		"latitude": "35.1859106636",
		"longitude": "10.5371581949"
	},
	{
		"circonscription": "المهدية",
		"delegation": "شربان",
		"nom": "أولاد أحمد",
		"latitude": "35.2137206029",
		"longitude": "10.5463447608"
	},
	{
		"circonscription": "المهدية",
		"delegation": "شربان",
		"nom": "الشرف",
		"latitude": "35.1857475517",
		"longitude": "10.4006722290"
	},
	{
		"circonscription": "المهدية",
		"delegation": "هبيرة",
		"nom": "مستشفى هبيرة",
		"latitude": "35.1704806695",
		"longitude": "10.2295538317"
	},
	{
		"circonscription": "المهدية",
		"delegation": "هبيرة",
		"nom": "منزل حشاد",
		"latitude": "35.1850734372",
		"longitude": "10.2839325182"
	},
	{
		"circonscription": "المهدية",
		"delegation": "هبيرة",
		"nom": "الونايسية",
		"latitude": "35.2179202717",
		"longitude": "10.3017470799"
	},
	{
		"circonscription": "المهدية",
		"delegation": "هبيرة",
		"nom": "الشحدة الغربية 2",
		"latitude": "35.2578935679",
		"longitude": "10.2071749885"
	},
	{
		"circonscription": "المهدية",
		"delegation": "هبيرة",
		"nom": "المحارزة الجنوبية",
		"latitude": "35.3550953558",
		"longitude": "10.2404303569"
	},
	{
		"circonscription": "المهدية",
		"delegation": "بومرداس",
		"nom": "مستشفى بومرداس",
		"latitude": "35.4531082604",
		"longitude": "10.7371239178"
	},
	{
		"circonscription": "المهدية",
		"delegation": "بومرداس",
		"nom": "بومرداس المدينة",
		"latitude": "35.4543648753",
		"longitude": "10.7277919259"
	},
	{
		"circonscription": "المهدية",
		"delegation": "بومرداس",
		"nom": "كركر المحطة",
		"latitude": "35.4701184109",
		"longitude": "10.6609350163"
	},
	{
		"circonscription": "المهدية",
		"delegation": "بومرداس",
		"nom": "كركر المدينة",
		"latitude": "35.4816151969",
		"longitude": "10.6403778121"
	},
	{
		"circonscription": "المهدية",
		"delegation": "بومرداس",
		"nom": "الملاهمة",
		"latitude": "35.4456127854",
		"longitude": "10.6161095202"
	},
	{
		"circonscription": "المهدية",
		"delegation": "بومرداس",
		"nom": "بوهلال علي الشمالية",
		"latitude": "35.4256737046",
		"longitude": "10.6536423415"
	},
	{
		"circonscription": "المهدية",
		"delegation": "بومرداس",
		"nom": "بوهلال علي القبلية",
		"latitude": "35.4052893352",
		"longitude": "10.6721126195"
	},
	{
		"circonscription": "المهدية",
		"delegation": "بومرداس",
		"nom": "الزراطة",
		"latitude": "35.4386680014",
		"longitude": "10.6771200523"
	},
	{
		"circonscription": "المهدية",
		"delegation": "بومرداس",
		"nom": "الرواضي",
		"latitude": "35.4103110172",
		"longitude": "10.6986170355"
	},
	{
		"circonscription": "المهدية",
		"delegation": "بومرداس",
		"nom": "الواحقة",
		"latitude": "35.4170648195",
		"longitude": "10.7635544054"
	},
	{
		"circonscription": "المهدية",
		"delegation": "بومرداس",
		"nom": "منزل حمزة الشرقية",
		"latitude": "35.4231354129",
		"longitude": "10.8091256395"
	},
	{
		"circonscription": "المهدية",
		"delegation": "بومرداس",
		"nom": "منزل حمزة الغربية",
		"latitude": "35.4036450572",
		"longitude": "10.7944710553"
	},
	{
		"circonscription": "المهدية",
		"delegation": "أولاد شامخ",
		"nom": "مستشفى أولاد شامخ",
		"latitude": "35.4901701026",
		"longitude": "10.3158214688"
	},
	{
		"circonscription": "المهدية",
		"delegation": "أولاد شامخ",
		"nom": "أولاد الشامخ الشمالية",
		"latitude": "35.5142343789",
		"longitude": "10.2754885051"
	},
	{
		"circonscription": "المهدية",
		"delegation": "أولاد شامخ",
		"nom": "السمرة",
		"latitude": "35.4327976517",
		"longitude": "10.2736067679"
	},
	{
		"circonscription": "المهدية",
		"delegation": "أولاد شامخ",
		"nom": "بو سليم",
		"latitude": "35.4286332708",
		"longitude": "10.2319066320"
	},
	{
		"circonscription": "المهدية",
		"delegation": "أولاد شامخ",
		"nom": "المحارزة الشمالية",
		"latitude": "35.3895194549",
		"longitude": "10.2646001615"
	},
	{
		"circonscription": "المهدية",
		"delegation": "أولاد شامخ",
		"nom": "العجيلات",
		"latitude": "35.4205348436",
		"longitude": "10.3545041196"
	},
	{
		"circonscription": "المهدية",
		"delegation": "أولاد شامخ",
		"nom": "الشحيمات الشمالية",
		"latitude": "35.4354788130",
		"longitude": "10.3927799966"
	},
	{
		"circonscription": "المهدية",
		"delegation": "أولاد شامخ",
		"nom": "أولاد عمر",
		"latitude": "35.4692043224",
		"longitude": "10.4168588575"
	},
	{
		"circonscription": "باجــــة",
		"delegation": "باجة الشمالية",
		"nom": "رعاية الام والطفل",
		"latitude": "36.722263094030474",
		"longitude": "9.180818610608806"
	},
	{
		"circonscription": "باجــــة",
		"delegation": "باجة الشمالية",
		"nom": "الزوابي",
		"latitude": "36.72727989153402",
		"longitude": "9.174313037011261"
	},
	{
		"circonscription": "باجــــة",
		"delegation": "باجة الشمالية",
		"nom": "قصر باردو",
		"latitude": "36.73533199925518",
		"longitude": "9.177903338046054"
	},
	{
		"circonscription": "باجــــة",
		"delegation": "باجة الشمالية",
		"nom": "المزارة",
		"latitude": "36.72895313385367",
		"longitude": "9.176798682301656"
	},
	{
		"circonscription": "باجــــة",
		"delegation": "باجة الشمالية",
		"nom": "الغرية",
		"latitude": "36.718413",
		"longitude": "9.1201153"
	},
	{
		"circonscription": "باجــــة",
		"delegation": "باجة الشمالية",
		"nom": "ابن الجزار",
		"latitude": "36.724826",
		"longitude": "9.1829318"
	},
	{
		"circonscription": "باجــــة",
		"delegation": "باجة الشمالية",
		"nom": "كلم 16",
		"latitude": "36.855672",
		"longitude": "9.2130168"
	},
	{
		"circonscription": "باجــــة",
		"delegation": "باجة الشمالية",
		"nom": "الشرشارة",
		"latitude": "36.88004195149235",
		"longitude": "9.19879312745238"
	},
	{
		"circonscription": "باجــــة",
		"delegation": "باجة الشمالية",
		"nom": "بوقرين",
		"latitude": "36.901139",
		"longitude": "9.2327838"
	},
	{
		"circonscription": "باجــــة",
		"delegation": "باجة الشمالية",
		"nom": "المنشار",
		"latitude": "36.730289",
		"longitude": "9.3137149"
	},
	{
		"circonscription": "باجــــة",
		"delegation": "باجة الشمالية",
		"nom": "قصرمزوار",
		"latitude": "36.81717990986248",
		"longitude": "9.32529619742021"
	},
	{
		"circonscription": "باجــــة",
		"delegation": "باجة الجنوبية",
		"nom": "سيدي فرج الهواري",
		"latitude": "36.72154038838847",
		"longitude": "9.196154280049349"
	},
	{
		"circonscription": "باجــــة",
		"delegation": "باجة الجنوبية",
		"nom": "المعقولة",
		"latitude": "36.7113426880631",
		"longitude": "9.212000704514483"
	},
	{
		"circonscription": "باجــــة",
		"delegation": "باجة الجنوبية",
		"nom": "سيدي إسماعيل",
		"latitude": "36.5965907447529",
		"longitude": "9.113641139091765"
	},
	{
		"circonscription": "باجــــة",
		"delegation": "باجة الجنوبية",
		"nom": "مستوتة",
		"latitude": "36.630203345815126",
		"longitude": "9.19935616454493"
	},
	{
		"circonscription": "باجــــة",
		"delegation": "باجة الجنوبية",
		"nom": "المالح",
		"latitude": "36.658233",
		"longitude": "9.0653627"
	},
	{
		"circonscription": "باجــــة",
		"delegation": "باجة الجنوبية",
		"nom": "قصرحديد",
		"latitude": "36.65966105950988",
		"longitude": "9.092244211062423"
	},
	{
		"circonscription": "باجــــة",
		"delegation": "باجة الجنوبية",
		"nom": "حمام سيالة",
		"latitude": "36.66325872175352",
		"longitude": "9.151307636193637"
	},
	{
		"circonscription": "باجــــة",
		"delegation": "باجة الجنوبية",
		"nom": "بالشوك",
		"latitude": "36.635474",
		"longitude": "9.2583545"
	},
	{
		"circonscription": "باجــــة",
		"delegation": "باجة الجنوبية",
		"nom": "المحفورة",
		"latitude": "36.659155793947015",
		"longitude": "9.283430024616418"
	},
	{
		"circonscription": "باجــــة",
		"delegation": "باجة الجنوبية",
		"nom": "القناديل",
		"latitude": "36.70750117723845",
		"longitude": "9.285927711137706"
	},
	{
		"circonscription": "باجــــة",
		"delegation": "نفزة",
		"nom": "م نفزة",
		"latitude": "36.98074469396392",
		"longitude": "9.086426672549983"
	},
	{
		"circonscription": "باجــــة",
		"delegation": "نفزة",
		"nom": "ر.أم والطفل",
		"latitude": "36.975767",
		"longitude": "9.0780183"
	},
	{
		"circonscription": "باجــــة",
		"delegation": "نفزة",
		"nom": "وشتاتة",
		"latitude": "36.96018269654275",
		"longitude": "9.003694917808324"
	},
	{
		"circonscription": "باجــــة",
		"delegation": "نفزة",
		"nom": "زاقة",
		"latitude": "36.921861827879205",
		"longitude": "8.992101772821325"
	},
	{
		"circonscription": "باجــــة",
		"delegation": "نفزة",
		"nom": "اولاد سالم",
		"latitude": "36.99454353314058",
		"longitude": "8.998168734198287"
	},
	{
		"circonscription": "باجــــة",
		"delegation": "نفزة",
		"nom": "اولاد قاسم",
		"latitude": "37.02077491416163",
		"longitude": "9.047877776669107"
	},
	{
		"circonscription": "باجــــة",
		"delegation": "نفزة",
		"nom": "الجميل",
		"latitude": "36.94662196286779",
		"longitude": "9.05126748415405"
	},
	{
		"circonscription": "باجــــة",
		"delegation": "نفزة",
		"nom": "واد الداموس",
		"latitude": "37.03297718960856",
		"longitude": "9.101369624554234"
	},
	{
		"circonscription": "باجــــة",
		"delegation": "نفزة",
		"nom": "خرقالية",
		"latitude": "37.081505279569676",
		"longitude": "9.060381982301631"
	},
	{
		"circonscription": "باجــــة",
		"delegation": "نفزة",
		"nom": "عش الزيتون",
		"latitude": "37.026567",
		"longitude": "9.1431116"
	},
	{
		"circonscription": "باجــــة",
		"delegation": "نفزة",
		"nom": "راس الوادي",
		"latitude": "36.97650471754463",
		"longitude": "9.181679917065723"
	},
	{
		"circonscription": "باجــــة",
		"delegation": "نفزة",
		"nom": "الرميلة",
		"latitude": "36.92982137435997",
		"longitude": "9.187486138203207"
	},
	{
		"circonscription": "باجــــة",
		"delegation": "نفزة",
		"nom": "الطبابة",
		"latitude": "36.906363",
		"longitude": "9.143844"
	},
	{
		"circonscription": "باجــــة",
		"delegation": "نفزة",
		"nom": "وادي المعدن",
		"latitude": "36.86229632905336",
		"longitude": "9.102249971775634"
	},
	{
		"circonscription": "باجــــة",
		"delegation": "نفزة",
		"nom": "غياضة",
		"latitude": "36.945758",
		"longitude": "9.1641691"
	},
	{
		"circonscription": "باجــــة",
		"delegation": "نفزة",
		"nom": "جبل الديس",
		"latitude": "36.998936",
		"longitude": "9.1331372"
	},
	{
		"circonscription": "باجــــة",
		"delegation": "عمــــدون",
		"nom": "زهرة مدين",
		"latitude": "36.76886600022916",
		"longitude": "9.089763224554268"
	},
	{
		"circonscription": "باجــــة",
		"delegation": "عمــــدون",
		"nom": "عين سلام",
		"latitude": "36.8049181072122",
		"longitude": "9.103196950424532"
	},
	{
		"circonscription": "باجــــة",
		"delegation": "عمــــدون",
		"nom": "القوسة",
		"latitude": "36.76897582989449",
		"longitude": "9.033492926194286"
	},
	{
		"circonscription": "باجــــة",
		"delegation": "عمــــدون",
		"nom": "الطرهوني",
		"latitude": "36.703011",
		"longitude": "9.0527429"
	},
	{
		"circonscription": "باجــــة",
		"delegation": "عمــــدون",
		"nom": "المجالس",
		"latitude": "36.83490170183145",
		"longitude": "9.060884865768738"
	},
	{
		"circonscription": "باجــــة",
		"delegation": "عمــــدون",
		"nom": "بني مالك",
		"latitude": "36.796038934007676",
		"longitude": "9.027140365029705"
	},
	{
		"circonscription": "باجــــة",
		"delegation": "عمــــدون",
		"nom": "الغرفة",
		"latitude": "36.823115",
		"longitude": "8.9530725"
	},
	{
		"circonscription": "باجــــة",
		"delegation": "عمــــدون",
		"nom": "الرماضنية",
		"latitude": "36.785752",
		"longitude": "8.9858344"
	},
	{
		"circonscription": "باجــــة",
		"delegation": "عمــــدون",
		"nom": "الجوزة",
		"latitude": "36.84928244184778",
		"longitude": "9.005355037239368"
	},
	{
		"circonscription": "باجــــة",
		"delegation": "عمــــدون",
		"nom": "الدغرق",
		"latitude": "36.852089419601",
		"longitude": "9.047372168809847"
	},
	{
		"circonscription": "باجــــة",
		"delegation": "عمــــدون",
		"nom": "بورويس",
		"latitude": "36.82592312554355",
		"longitude": "9.12195747282131"
	},
	{
		"circonscription": "باجــــة",
		"delegation": "مجاز الباب",
		"nom": "ع السلام خالد",
		"latitude": "36.648718",
		"longitude": "9.6107953"
	},
	{
		"circonscription": "باجــــة",
		"delegation": "مجاز الباب",
		"nom": "العرقوب",
		"latitude": "36.64638265217674",
		"longitude": "9.630114459329512"
	},
	{
		"circonscription": "باجــــة",
		"delegation": "مجاز الباب",
		"nom": "م.رعاية الام والطفل",
		"latitude": "36.65015501908909",
		"longitude": "9.613813015035322"
	},
	{
		"circonscription": "باجــــة",
		"delegation": "مجاز الباب",
		"nom": "سيدي مدين",
		"latitude": "36.624685898985824",
		"longitude": "9.745574902157852"
	},
	{
		"circonscription": "باجــــة",
		"delegation": "مجاز الباب",
		"nom": "القرعات",
		"latitude": "36.660622466024684",
		"longitude": "9.783817218997015"
	},
	{
		"circonscription": "باجــــة",
		"delegation": "مجاز الباب",
		"nom": "شواش",
		"latitude": "36.71295232334841",
		"longitude": "9.542558947690093"
	},
	{
		"circonscription": "باجــــة",
		"delegation": "مجاز الباب",
		"nom": "القريش",
		"latitude": "36.6797234757274",
		"longitude": "9.666207431457305"
	},
	{
		"circonscription": "باجــــة",
		"delegation": "مجاز الباب",
		"nom": "الجديدي",
		"latitude": "36.662928",
		"longitude": "9.5160906"
	},
	{
		"circonscription": "باجــــة",
		"delegation": "مجاز الباب",
		"nom": "الهري",
		"latitude": "36.725933223872445",
		"longitude": "9.664810115760914"
	},
	{
		"circonscription": "باجــــة",
		"delegation": "مجاز الباب",
		"nom": "حيدوس",
		"latitude": "36.740037929353356",
		"longitude": "9.591851037239362"
	},
	{
		"circonscription": "باجــــة",
		"delegation": "مجاز الباب",
		"nom": "القصر",
		"latitude": "36.75887914686939",
		"longitude": "9.473071281996613"
	},
	{
		"circonscription": "باجــــة",
		"delegation": "مجاز الباب",
		"nom": "توكابر",
		"latitude": "36.708793023610205",
		"longitude": "9.523781723637538"
	},
	{
		"circonscription": "باجــــة",
		"delegation": "مجاز الباب",
		"nom": "سيدي نصر",
		"latitude": "36.68282335311706",
		"longitude": "9.567800772184846"
	},
	{
		"circonscription": "باجــــة",
		"delegation": "قبلاط",
		"nom": "م . قبلاط",
		"latitude": "36.541188577317904",
		"longitude": "9.669260626396498"
	},
	{
		"circonscription": "باجــــة",
		"delegation": "قبلاط",
		"nom": "رعاية الام والطفل",
		"latitude": "36.541312901489064",
		"longitude": "9.662817376167417"
	},
	{
		"circonscription": "باجــــة",
		"delegation": "قبلاط",
		"nom": "سيدي نصر",
		"latitude": "36.4725",
		"longitude": "9.6031026"
	},
	{
		"circonscription": "باجــــة",
		"delegation": "قبلاط",
		"nom": "شيخ الوديان",
		"latitude": "36.488263",
		"longitude": "9.7184005"
	},
	{
		"circonscription": "باجــــة",
		"delegation": "قبلاط",
		"nom": "دور إسماعيل",
		"latitude": "36.532005992522826",
		"longitude": "9.762720698759274"
	},
	{
		"circonscription": "باجــــة",
		"delegation": "قبلاط",
		"nom": "التلة",
		"latitude": "36.58226028847546",
		"longitude": "9.819700017808337"
	},
	{
		"circonscription": "باجــــة",
		"delegation": "قبلاط",
		"nom": "قرام",
		"latitude": "36.52092",
		"longitude": "9.6137713"
	},
	{
		"circonscription": "باجــــة",
		"delegation": "تستور",
		"nom": "العيادات الخارجية",
		"latitude": "36.55301131833123",
		"longitude": "9.438229996620947"
	},
	{
		"circonscription": "باجــــة",
		"delegation": "تستور",
		"nom": "رعاية الام والطفل",
		"latitude": "36.55348043373182",
		"longitude": "9.433628365639368"
	},
	{
		"circonscription": "باجــــة",
		"delegation": "تستور",
		"nom": "وادي الزرقة",
		"latitude": "36.665034",
		"longitude": "9.4396541"
	},
	{
		"circonscription": "باجــــة",
		"delegation": "تستور",
		"nom": "الصخيرة",
		"latitude": "36.59317173746557",
		"longitude": "9.413174265029722"
	},
	{
		"circonscription": "باجــــة",
		"delegation": "تستور",
		"nom": "السلوقية",
		"latitude": "36.57941175309848",
		"longitude": "9.51192696468517"
	},
	{
		"circonscription": "باجــــة",
		"delegation": "تستور",
		"nom": "وادي الاحمر",
		"latitude": "36.55331785637666",
		"longitude": "9.494088517069322"
	},
	{
		"circonscription": "باجــــة",
		"delegation": "تستور",
		"nom": "اولاد سلامة",
		"latitude": "36.51534302045456",
		"longitude": "9.49199352285897"
	},
	{
		"circonscription": "باجــــة",
		"delegation": "تستور",
		"nom": "زلدو",
		"latitude": "36.577329247578945",
		"longitude": "9.313543810060682"
	},
	{
		"circonscription": "باجــــة",
		"delegation": "تستور",
		"nom": "لقصر",
		"latitude": "36.61273490782099",
		"longitude": "9.305728892860916"
	},
	{
		"circonscription": "باجــــة",
		"delegation": "تستور",
		"nom": "عين طنقة",
		"latitude": "36.52631706611304",
		"longitude": "9.359315019078863"
	},
	{
		"circonscription": "باجــــة",
		"delegation": "تبرسق",
		"nom": "تبرسق",
		"latitude": "36.46194045928186",
		"longitude": "9.242828023779537"
	},